"ride_id","rideable_type","started_at","ended_at","start_station_name","start_station_id","end_station_name","end_station_id","start_lat","start_lng","end_lat","end_lng","member_casual"
"FD772ADA8A3B2363","electric_bike","2024-09-06 16:30:38.511","2024-09-06 16:39:13.554","Vernon Blvd & 50 Ave","6170.02","Driggs Ave & Lorimer St","5481.04",40.74232744,-73.95411749,40.72179134,-73.9504154,"member"
"2D3E86FB60982C81","electric_bike","2024-09-25 00:42:36.611","2024-09-25 00:45:12.024","37 Ave & 63 St","6340.09","55 St & Northern Blvd","6502.01",40.74893,-73.89981,40.75326,-73.90585,"casual"
"212A12309B7FE24F","electric_bike","2024-09-25 19:15:51.499","2024-09-25 19:22:34.594","Carmine St & 6 Ave","5763.03","E 6 St & Ave B","5584.04",40.73038599,-74.00214988,40.72453734,-73.98185424,"member"
"738EEC0F625FE701","classic_bike","2024-09-07 18:03:30.597","2024-09-07 18:10:42.430","Adam Clayton Powell Blvd & W 126 St","7738.04","5 Ave & W 131 St","7735.05",40.8094953477795,-73.9477649331093,40.81014,-73.93973,"member"
"2841A0D014F76F90","classic_bike","2024-09-05 18:07:06.379","2024-09-05 18:26:06.020","Wythe Ave & Metropolitan Ave","5348.02","Market St & Cherry St","5198.04",40.716887,-73.963198,40.71076228,-73.99400398,"member"
"D76C2CCD6ADC9875","electric_bike","2024-09-28 20:13:40.076","2024-09-28 20:24:32.431","W 34 St & Hudson Blvd E","6535.04","E 22 St & 2 Ave","5971.09",40.7551671907214,-74.0005990862846,40.7371691936988,-73.9812254905701,"member"
"1F28D8074548F31E","classic_bike","2024-09-21 17:47:50.508","2024-09-21 17:53:59.661","9 Ave & W 22 St","6266.06","W 15 St & 6 Ave","5989.02",40.7454973,-74.00197139,40.7380461424828,-73.996429592371,"member"
"667D22BD5F46F2ED","electric_bike","2024-09-21 14:36:04.259","2024-09-21 14:42:57.374","Degraw St & Smith St","4298.05","Schermerhorn St & Hoyt St","4479.10",40.6829151,-73.99318208,40.6886263,-73.9851911,"member"
"CC02D18B5394F1A0","classic_bike","2024-09-23 11:18:13.774","2024-09-23 11:36:03.758","Jay St & Tech Pl","4710.06","5 Ave & 3 St","3987.06",40.695065,-73.987167,40.6728155,-73.98352355,"member"
"065B6DD40C156E15","classic_bike","2024-09-18 05:55:55.450","2024-09-18 05:59:58.157","Queens Plaza North & Crescent St","6429.01","31 St & Northern Blvd","6495.17",40.75110165,-73.94073717,40.7518695142187,-73.933492898941,"member"
"FFC1B1E236137F35","classic_bike","2024-09-07 14:05:59.941","2024-09-07 14:08:44.420","Johnson St & Gold St","4668.08","Nassau St & Navy St","4812.02",40.69474881,-73.98362464,40.69839895,-73.98068914,"member"
"95895C649BA89CF7","electric_bike","2024-09-05 14:08:02.988","2024-09-05 14:17:36.542","Murray St & Greenwich St","5288.12","7 Ave S & Bleecker St","5805.07",40.7148515052625,-74.0112233161926,40.7321389628738,-74.0036380290985,"member"
"6B12098A17314D2A","classic_bike","2024-09-21 12:46:34.344","2024-09-21 12:57:35.994","St Johns Pl & Kingston Ave","3943.03","Macon St & Patchen Ave","4301.04",40.67113,-73.94222,40.68374,-73.9261,"member"
"D0FD86A507428DBF","electric_bike","2024-09-11 09:52:15.311","2024-09-11 09:54:53.991","Washington Pl & Greene St","5755.15","Cooper Square & Astor Pl","5712.03",40.729806191805,-73.9954638091546,40.7295149622495,-73.990752696991,"member"
"177D27FEDFE85301","classic_bike","2024-09-21 19:23:43.109","2024-09-21 19:32:40.850","Bergen St & Vanderbilt Ave","4157.10","5 Ave & 3 St","3987.06",40.6794388,-73.9680438,40.6728155,-73.98352355,"member"
"C8E62EC2410C4063","electric_bike","2024-09-27 06:01:24.540","2024-09-27 06:06:10.708","6 Ave & W 33 St","6364.07","W 48 St &  Rockefeller Plaza","6626.11",40.74901271,-73.98848395,40.7577693544831,-73.9792943000793,"casual"
"D9F678B31FE45AE1","electric_bike","2024-09-11 16:57:48.562","2024-09-11 17:05:38.615","Laight St & Hudson St","5539.06","W 15 St & 6 Ave","5989.02",40.72185379,-74.00771779,40.7380461424828,-73.996429592371,"member"
"9DE8076A03DC5C86","electric_bike","2024-09-02 19:50:32.232","2024-09-02 20:02:19.091","9 Ave & W 22 St","6266.06","Lafayette St & E 8 St","5788.13",40.7454973,-74.00197139,40.7302066052995,-73.9910262823105,"member"
"74F21E7975B91A4F","classic_bike","2024-09-17 21:29:08.426","2024-09-17 21:36:35.015","Sterling Pl & Bedford Ave","3993.03","Halsey St & Tompkins Ave","4319.07",40.672695,-73.954131,40.6823687,-73.944118,"member"
"B0F6239B84CC385B","classic_bike","2024-09-01 08:57:09.082","2024-09-01 09:02:21.406","Verona Pl & Fulton St","4214.04","Monroe St & Bedford Ave","4368.05",40.6803560840434,-73.9476791024208,40.6851443,-73.95380904,"member"
"D0AF26CF18710522","electric_bike","2024-09-25 23:26:28.160","2024-09-25 23:46:06.516","Market St & Henry St","5270.09","Lafayette Ave & St James Pl","4494.04",40.7131070230591,-73.9944635331631,40.68851534,-73.9647628,"member"
"5B9DACB2A276CF40","electric_bike","2024-09-18 17:42:08.681","2024-09-18 18:47:24.090","Riverside Dr & W 82 St","7388.10","E 74 St & 1 Ave","6953.08",40.78720869,-73.98128127,40.7689738,-73.95482273,"member"
"F9F56B723982BBCA","electric_bike","2024-09-01 17:58:38.940","2024-09-01 18:03:48.506","34 Ave & 21 St","6798.01","31 St & Broadway","6789.2",40.7628138,-73.9342862,40.76211,-73.92523,"member"
"8A561A8ADB7DF612","electric_bike","2024-09-18 15:58:29.956","2024-09-18 16:12:03.921","Rutgers St & Henry St","5230.02","Madison St & Clinton St","5190.07",40.7133215120819,-73.9900968968868,40.71269042,-73.98776323,"member"
"893F6257DC1971E1","classic_bike","2024-09-08 10:37:51.098","2024-09-08 10:45:44.447","Christopher St & Greenwich St","5847.01","St Marks Pl & 2 Ave","5669.10",40.73291553,-74.00711384,40.7284186,-73.98713956,"member"
"07ABAC33D95E92AF","electric_bike","2024-09-12 16:09:25.953","2024-09-12 16:19:01.257","Townsend Ave & E 175 St","8323.05","Amsterdam Ave & W 172 St","8242.04",40.84741,-73.911359,40.842173,-73.935111,"member"
"598B26D677BB427F","classic_bike","2024-09-23 10:36:34.337","2024-09-23 10:41:31.136","Degraw St & Smith St","4298.05","Court St & State St","4488.08",40.6829151,-73.99318208,40.6902375,-73.99203074,"member"
"A549063EF50F9BEC","electric_bike","2024-09-12 17:21:52.583","2024-09-12 17:32:07.150","E 54 St & 1 Ave","6608.09","Columbus Ave & W 59 St","6986.07",40.756265,-73.964179,40.76931,-73.98464,"member"
"A52E3ADD62F1C836","classic_bike","2024-09-01 11:53:35.007","2024-09-01 11:58:58.807","8 Ave & W 16 St","6072.11","E 16 St & 5 Ave","6022.04",40.740983,-74.001702,40.73726186,-73.99238967,"member"
"19424BBDDF7ACFD4","classic_bike","2024-09-03 15:02:30.088","2024-09-03 15:05:44.347","Lafayette St & E 8 St","5788.13","St Marks Pl & 1 Ave","5626.13",40.7302066052995,-73.9910262823105,40.72779126,-73.98564945,"member"
"A4785E629BBDA063","classic_bike","2024-09-28 22:39:08.239","2024-09-28 22:42:31.611","Broadway & Kent Ave","5134.09","Broadway & Roebling St","5125.07",40.710888,-73.968329,40.7092482627616,-73.9606314897537,"member"
"FA4D20868B8B5106","electric_bike","2024-09-16 15:58:25.541","2024-09-16 16:04:04.995","4 Ave & E 12 St","5788.15","Lexington Ave & E 24 St","6089.07",40.732647,-73.99011,40.74025878,-73.98409214,"member"
"9CFA76F12F70E681","classic_bike","2024-09-13 10:09:43.911","2024-09-13 10:11:54.414","E 45 St & 3 Ave","6464.08","E 47 St & 2 Ave","6498.10",40.75255434,-73.97282625,40.75323098,-73.97032517,"member"
"57FEA91F778F591D","electric_bike","2024-09-25 12:21:20.429","2024-09-25 12:51:24.000","E 22 St & 2 Ave","5971.09","Bergen St & Vanderbilt Ave","4157.10",40.7371691936988,-73.9812254905701,40.6794388,-73.9680438,"member"
"4FAAA5EB29031B3F","classic_bike","2024-09-01 17:18:42.930","2024-09-01 17:30:51.052","Hanson Pl & Ashland Pl","4395.07","5 Ave & 3 St","3987.06",40.6850680730818,-73.9779075980186,40.6728155,-73.98352355,"member"
"AA115ACE5AECCFAB","classic_bike","2024-09-20 18:56:39.860","2024-09-20 19:01:00.826","Bergen St & Vanderbilt Ave","4157.10","Plaza St West & Flatbush Ave","4010.13",40.6794388,-73.9680438,40.6750207,-73.97111473,"member"
"A61ABD20AA8A60F4","electric_bike","2024-09-08 11:23:31.638","2024-09-08 11:32:26.004","Orchard St & Grand St","5343.11","Peck Slip & South St","5096.12",40.7173184038558,-73.9906775951385,40.7075188830923,-74.0010805428028,"member"
"A2A8A80CA7D7EF41","electric_bike","2024-09-01 14:51:33.494","2024-09-01 14:55:57.001","Franklin St & Dupont St","5944.01","Wythe Ave & N 13 St","5558.04",40.73564,-73.95866,40.722767,-73.957021,"member"
"31ABF2BBAA878EAF","electric_bike","2024-09-30 17:03:14.426","2024-09-30 17:07:10.809","Laight St & Hudson St","5539.06","Hudson St & Reade St","5359.1",40.72185379,-74.00771779,40.71625008,-74.0091059,"member"
"92E3B052C5CAD9BC","electric_bike","2024-09-14 19:52:05.245","2024-09-14 20:06:42.120","Ave D & E 8 St","5506.10","Grand St & Samuel Dickstein Plaza","5335.07",40.72368361,-73.97574813,40.715118719965,-73.9841705560684,"member"
"7649230647E75B0F","electric_bike","2024-09-26 23:06:21.649","2024-09-26 23:12:09.184","8 Ave & W 49 St","6747.07","West End Ave & W 60 St","7059.08",40.7617122791067,-73.9865510165691,40.77237,-73.99005,"member"
"55B0D5101F8210A7","electric_bike","2024-09-20 15:32:42.931","2024-09-20 15:39:22.488","S 2 St & Kent Ave","5276.04","Hope St & Union Ave","5187.03",40.714731,-73.966612,40.71167351,-73.95141312,"member"
"8ECACF78CCD29BC5","electric_bike","2024-09-06 09:45:46.093","2024-09-06 09:57:17.575","Clinton Ave & Myrtle Ave","4651.02","N 9 St & Wythe Ave","5489.06",40.693261,-73.968896,40.72054,-73.959,"casual"
"338D81D3222C2554","electric_bike","2024-09-30 08:24:40.335","2024-09-30 08:29:06.103","E 39 St & Lexington Ave","6389.09","E 51 St & Lexington Ave","6659.01",40.7494985460252,-73.9772920311316,40.75714758,-73.97207836,"member"
"40BEEE34A4146DD5","electric_bike","2024-09-05 23:12:44.129","2024-09-05 23:20:23.340","Knickerbocker Ave & Thames St","5018.06","Division Ave & Hooper St","5045.05",40.70539,-73.92976,40.7068420310133,-73.9544353965357,"member"
"34377D1E413BC965","classic_bike","2024-09-03 16:46:13.445","2024-09-03 16:57:32.988","9 Ave & W 22 St","6266.06","1 Ave & E 18 St","5854.09",40.7454973,-74.00197139,40.7338121919663,-73.9805442094803,"member"
"D72F75BF119D94B2","electric_bike","2024-09-19 19:24:37.679","2024-09-19 19:28:22.808","Myrtle Ave & Lewis Ave","4729.01","Willoughby Ave & Tompkins Ave","4665.02",40.69681963,-73.93756926,40.69425403,-73.94626915,"member"
"1C7E24806CBCF8C3","classic_bike","2024-09-06 15:28:12.868","2024-09-06 15:37:44.730","24 St & 5 Ave","3555.04","10 St & 7 Ave","3762.08",40.659555,-73.995068,40.6662078,-73.98199886,"member"
"1B1A4B08DD43DB88","classic_bike","2024-09-09 18:27:00.191","2024-09-09 18:38:26.972","Riverside Dr & W 72 St","7288.04","5 Ave & E 72 St","7100.07",40.7805779901033,-73.9856243133545,40.77282817,-73.96685276,"member"
"0C530A3BD8EA3E1E","classic_bike","2024-09-10 19:53:43.180","2024-09-10 20:12:25.051","Manhattan Ave & Devoe St","5219.05","Manhattan Ave & Devoe St","5219.05",40.713532,-73.9459867,40.713532,-73.9459867,"member"
"4A4540D28F327B29","electric_bike","2024-09-21 18:10:05.685","2024-09-21 18:57:16.440","W 52 St & 11 Ave","6926.01","Hope St & Union Ave","5187.03",40.76727216,-73.99392888,40.71167351,-73.95141312,"casual"
"251E44141E666F64","classic_bike","2024-09-16 12:01:56.571","2024-09-16 12:53:34.843","44 Dr & Jackson Ave","6352.01","Central Ave & Starr St","4792.03",40.74718234,-73.9432635,40.700003,-73.92834,"member"
"608A44084BDA72A5","electric_bike","2024-09-03 19:11:13.121","2024-09-03 19:33:38.401","11 Ave & W 59 St","7059.01","Murray St & West St","5329.08",40.7714967105444,-73.9904603362083,40.71503,-74.01246,"member"
"A148C65A34EDC392","electric_bike","2024-09-20 20:57:49.408","2024-09-20 21:00:36.029","Throop Ave & Myrtle Ave","4697.01","Myrtle Ave & Lewis Ave","4729.01",40.69622937,-73.94371094,40.69681963,-73.93756926,"member"
"BC1F4134A983B812","electric_bike","2024-09-14 13:42:03.821","2024-09-14 13:54:13.588","6 Ave & 12 St","3803.05","3 Ave & Schermerhorn St","4437.01",40.6663181,-73.9854617,40.68683208,-73.9796772,"member"
"51FF7E46D3EA307D","classic_bike","2024-09-15 17:34:33.335","2024-09-15 17:36:45.643","Ave A & E 14 St","5779.11","E 7 St & Ave A","5626.07",40.730310710009,-73.9804717898369,40.72621788,-73.98379855,"member"
"085AD0298A95FE37","electric_bike","2024-09-13 17:09:04.754","2024-09-13 17:34:51.163","7 Ave & Central Park South","6912.01","Duane St & Hudson St","5359.12",40.7667405590595,-73.9790689945221,40.71703,-74.00925,"member"
"C6FC0578717A362B","electric_bike","2024-09-10 16:01:16.108","2024-09-10 16:11:53.654","Broadway & W 61 St","7014.12","3 Ave & E 62 St","6830.04",40.7700301025504,-73.9819684624672,40.76313,-73.96527,"member"
"95A2754A502E68D2","electric_bike","2024-09-26 17:29:00.128","2024-09-26 17:50:03.212","Central Park West & W 85 St","7354.01","W 17 St & 8 Ave","6148.02",40.78476,-73.969862,40.74177603,-74.00149746,"member"
"69E65BAD1EC036A2","classic_bike","2024-09-15 20:55:07.277","2024-09-15 21:01:04.678","N 7 St & Driggs Ave","5340.01","N 10 St & Berry St","5450.01",40.716967,-73.956388,40.720253,-73.957082,"member"
"D7936E64AE6EC6BB","electric_bike","2024-09-28 14:30:57.521","2024-09-28 14:54:10.716","N 6 St & Bedford Ave","5379.10","Christopher St & Greenwich St","5847.01",40.71745169,-73.95850939,40.73291553,-74.00711384,"casual"
"62FD50D6DACC70CB","classic_bike","2024-09-30 15:44:46.353","2024-09-30 15:46:59.006","2 Ave & E 29 St","6122.09","E 26 St & 3 Ave","6089.11",40.7417235109747,-73.9780926704407,40.7406931773304,-73.9816063642502,"member"
"F2336E786E6B4406","electric_bike","2024-09-05 14:38:20.084","2024-09-05 14:47:28.101","43 St & Broadway","6670.03","72 St & Broadway","6258.02",40.7577284,-73.9166368,40.74751,-73.89372,"member"
"151DA3CF2341CBB2","electric_bike","2024-09-26 04:54:40.901","2024-09-26 05:01:40.001","Lexington Ave & E 29 St","6164.09","E 6 St & Ave B","5584.04",40.7431155537649,-73.9821535348892,40.72453734,-73.98185424,"casual"
"ADC7A3C0A4DEDFBD","classic_bike","2024-09-24 08:28:56.061","2024-09-24 08:32:14.901","Clinton St & Cherry St","5190.09","Clinton St & Grand St","5303.06",40.7114713944693,-73.9867260307074,40.71559509,-73.9870295,"member"
"F4E43A1F1EFD3DC2","classic_bike","2024-09-24 09:03:28.520","2024-09-24 09:06:42.031","E 3 St & 1 Ave","5553.03","Washington Pl & Broadway","5755.01",40.72467721,-73.98783413,40.72903917,-73.99404649,"member"
"3F5511B48C43665C","electric_bike","2024-09-29 01:50:21.941","2024-09-29 01:57:53.016","Beverley Rd & Flatbush Ave","3180.02","E 49 St & Church Ave","3300.04",40.64499,-73.95818,40.65182,-73.93135,"member"
"50D980176E26BD11","electric_bike","2024-09-05 10:24:18.778","2024-09-05 10:28:30.349","E 22 St & 2 Ave","5971.09","E 15 St & 5 Ave","5947.06",40.7371691936988,-73.9812254905701,40.736592,-73.992949,"member"
"E27A538862C9FADD","electric_bike","2024-09-15 15:27:59.681","2024-09-15 15:48:50.358","Central Park West & W 68 St","7079.06","3 Ave & E 62 St","6830.04",40.7734066,-73.97782542,40.76313,-73.96527,"casual"
"AF37DF3044A1DFC6","electric_bike","2024-09-10 17:10:20.238","2024-09-10 17:30:14.508","Bridge St & York St","4853.06","India St & Manhattan Ave","5826.02",40.7013344806699,-73.9847123622894,40.73232194,-73.9550858,"member"
"45D547D9C8C7C960","electric_bike","2024-09-15 13:32:06.358","2024-09-15 13:51:10.568","Broadway & E 21 St","6098.10","Central Park S & 6 Ave","6876.04",40.73988840859,-73.9895859360695,40.76590936,-73.97634151,"member"
"ADA04AF756A907A9","electric_bike","2024-09-04 09:27:11.658","2024-09-04 09:45:56.505","Eastern Pkwy & Brooklyn Ave","3871.02","Fulton St & Waverly Ave","4345.11",40.66939,-73.94514,40.6832386546034,-73.9659959077835,"member"
"1BC2D5EB46C92080","classic_bike","2024-09-27 20:04:07.488","2024-09-27 20:16:07.972","W 159 St & Edgecombe Ave","8119.05","St Nicholas Ave & W 126 St","7756.10",40.833303,-73.939326,40.8114323,-73.9518776,"member"
"A1038BE600F2342B","electric_bike","2024-09-22 16:27:21.099","2024-09-22 16:47:53.573","Duane St & Hudson St","5359.12","West End Ave & W 60 St","7059.08",40.71703,-74.00925,40.77237,-73.99005,"member"
"7A4901B8EB6DD661","electric_bike","2024-09-16 13:52:52.685","2024-09-16 14:00:20.095","43 St & 23 Ave","7009.06","36 St & Ditmars Blvd","7111.1",40.769673,-73.906018,40.774306,-73.908335,"member"
"ADA1B67D4798D3D6","electric_bike","2024-09-27 13:55:49.996","2024-09-27 14:12:06.639","E 89 St & 3 Ave","7265.10","West End Ave & W 60 St","7059.08",40.7806284,-73.9521667,40.77237,-73.99005,"member"
"45D525D3C1ECE58E","electric_bike","2024-09-08 20:35:27.404","2024-09-08 20:44:23.009","DeKalb Ave & Vanderbilt Ave","4461.04","Hancock St & Bedford Ave","4255.05",40.68940747,-73.96885458,40.68216564,-73.95399026,"casual"
"FF025B5D5D17C087","electric_bike","2024-09-29 18:59:08.548","2024-09-29 19:05:03.159","Pier 61 at Chelsea Piers","6233.04","Christopher St & Greenwich St","5847.01",40.746872,-74.00821,40.73291553,-74.00711384,"member"
"787C50BF4D14CB45","classic_bike","2024-09-23 09:13:46.443","2024-09-23 09:21:49.343","43 St & Skillman Ave","6325.01","27 St & Hunter St","6310.06",40.7469267568738,-73.9208248257637,40.7485,-73.941275,"member"
"5172A40ED474EC8E","classic_bike","2024-09-02 12:34:24.203","2024-09-02 13:19:56.815","Broadway & W 61 St","7014.12","Watts St & Greenwich St","5578.02",40.7700301025504,-73.9819684624672,40.72405549,-74.00965965,"member"
"22938E2743223A59","classic_bike","2024-09-16 09:01:11.602","2024-09-16 09:10:24.993","Wyckoff Ave & Jefferson St","5051.01","Central Ave & Starr St","4792.03",40.707165,-73.923711,40.700003,-73.92834,"member"
"B4A222526E973AC5","classic_bike","2024-09-10 19:49:17.243","2024-09-10 19:52:31.949","5 Ave & E 72 St","7100.07","5 Ave & E 72 St","7100.07",40.77282817,-73.96685276,40.77282817,-73.96685276,"casual"
"AEC0BC7C8B8B02AD","classic_bike","2024-09-11 11:40:32.444","2024-09-11 11:42:17.262","1 Ave & E 6 St","5626.15","E 5 St & Ave A","5626.06",40.726330859717,-73.9861688017845,40.7247900774634,-73.9843006432056,"member"
"B95B73077EDD624E","electric_bike","2024-09-15 23:12:57.773","2024-09-15 23:29:48.077","Suydam St & Broadway","4689.03","Great Jones St","5636.11",40.69544,-73.93223,40.72743423,-73.99379025,"member"
"1B19A84F11E18E8A","electric_bike","2024-09-12 17:38:27.868","2024-09-12 18:03:47.505","Dawson St & Intervale Ave","7888.10","W 192 St & University Ave","8639.01",40.819999,-73.897263,40.866899,-73.901942,"member"
"2EB0FEB805B66667","electric_bike","2024-09-13 10:41:03.853","2024-09-13 10:54:59.095","LaGuardia Pl & W 3 St","5721.14","Court St & State St","4488.08",40.72917025,-73.99810231,40.6902375,-73.99203074,"member"
"AABA2F23CC5139D8","classic_bike","2024-09-15 15:45:17.802","2024-09-15 16:03:53.368","Bus Slip & State St","4889.06","Barrow St & Hudson St","5805.05",40.701907,-74.013942,40.73172428,-74.00674436,"member"
"79E13A1B538451C4","classic_bike","2024-09-19 08:15:59.681","2024-09-19 08:37:11.624","South St & Gouverneur Ln","4953.04","Spring St & Hudson St","5653.12",40.70355377,-74.00670227,40.7258399679237,-74.0076532959938,"casual"
"F36BFC40981B90A9","electric_bike","2024-09-22 13:03:47.851","2024-09-22 13:22:12.923","Stanton St & Norfolk St","5445.07","Broadway & W 25 St","6173.08",40.720747,-73.986274,40.7428687731211,-73.9891862869263,"member"
"D6BC2E22FA5C2B77","classic_bike","2024-09-04 07:51:41.613","2024-09-04 08:02:42.611","South St & Gouverneur Ln","4953.04","Harrison St & Hudson St","5400.05",40.70355377,-74.00670227,40.71870987,-74.0090009,"member"
"52086F0A3487122D","electric_bike","2024-09-13 14:29:03.553","2024-09-13 14:40:49.637","Bleecker St & Crosby St","5679.08","Bridge St & Water St","4968.03",40.7261560498041,-73.9951018989086,40.7029693415527,-73.9846909046173,"member"
"179DCAC18410DC3B","electric_bike","2024-09-06 10:07:49.501","2024-09-06 10:16:23.598","E 58 St & 1 Ave (NW Corner)","6723.10","E 81 St & Park Ave","7188.1",40.759125,-73.962658,40.77677702,-73.9590097,"member"
"636FC7CBDB0CC147","electric_bike","2024-09-27 09:04:58.487","2024-09-27 09:32:20.518","Clermont Ave & Lafayette Ave","4461.01","W 20 St & 8 Ave","6224.05",40.68764484,-73.96968902,40.74345335,-74.00004031,"member"
"F81D25180A7315E2","electric_bike","2024-09-17 13:04:47.199","2024-09-17 13:16:06.190","Liberty St & Broadway","5105.01","Clinton St & Cherry St","5190.09",40.70905623,-74.01043382,40.7114713944693,-73.9867260307074,"casual"
"810214B62F5D3524","electric_bike","2024-09-20 15:21:30.987","2024-09-20 15:24:59.718","Ralph Ave & Fulton St","4220.02","Putnam Ave & Ralph Ave","4450.06",40.67922,-73.92192,40.68705,-73.92338,"member"
"C038A9450ED7ACBF","electric_bike","2024-09-28 17:12:25.358","2024-09-28 17:18:12.603","E 16 St & 5 Ave","6022.04","MacDougal St & Prince St","5687.04",40.73726186,-73.99238967,40.72710258,-74.00297088,"member"
"6C2A75AAFD1002CB","classic_bike","2024-09-06 16:16:53.358","2024-09-06 16:26:22.690","Forsyth St & Canal St","5270.07","Allen St & Stanton St","5484.09",40.7158155,-73.99422366,40.722055,-73.989111,"member"
"2ED4017FED478574","classic_bike","2024-09-03 08:53:28.354","2024-09-03 08:55:59.941","South St & Gouverneur Ln","4953.04","South St & Whitehall St","4846.01",40.70355377,-74.00670227,40.70122128,-74.01234218,"member"
"7444351B3A5EBFA7","electric_bike","2024-09-20 18:31:38.582","2024-09-20 18:46:47.871","W 35 St & 9 Ave","6569.09","Amsterdam Ave & W 82 St","7360.1",40.7541451926352,-73.9960889518261,40.78524672,-73.97667321,"member"
"D395B16C4E40207B","electric_bike","2024-09-27 14:43:02.027","2024-09-27 14:47:52.891","Lafayette St & E 8 St","5788.13","E 6 St & Ave B","5584.04",40.7302066052995,-73.9910262823105,40.72453734,-73.98185424,"member"
"1733A125AA7C0279","classic_bike","2024-09-15 12:33:36.810","2024-09-15 12:47:21.391","E 25 St & 2 Ave","6046.02","E 6 St & Ave D","5506.14",40.73912601,-73.97973776,40.72228087,-73.97668709,"casual"
"F07EDFB57F14FD81","electric_bike","2024-09-09 07:20:14.820","2024-09-09 07:29:59.505","7 Ave S & Bleecker St","5805.07","W 44 St & 5 Ave","6551.02",40.7321389628738,-74.0036380290985,40.75500254,-73.98014437,"member"
"92C3F076CBD7BC31","classic_bike","2024-09-09 15:46:45.889","2024-09-09 15:52:55.813","E 2 St & Ave B","5515.02","Rivington St & Chrystie St","5453.01",40.72217444,-73.98368779,40.72110063,-73.9919254,"member"
"FD4C677C70DD10C0","electric_bike","2024-09-05 12:12:04.364","2024-09-05 12:17:46.781","3 Ave & E 189 St","8526.03","E 191 St & Bathgate Ave","8541.04",40.85985,-73.89135,40.8601,-73.8866,"casual"
"CA8A14C81DD0F19B","electric_bike","2024-09-16 08:46:27.636","2024-09-16 08:48:46.388","Meserole Ave & Manhattan Ave","5666.04","India St & Manhattan Ave","5826.02",40.72708584,-73.95299117,40.73232194,-73.9550858,"member"
"E4F87C6921EF5EF8","electric_bike","2024-09-10 15:58:30.792","2024-09-10 16:01:56.861","Melrose Ave & E 150 St","7879.01","E 144 St & Brook Ave","7777.02",40.816827,-73.917338,40.811675,-73.917037,"member"
"5E5964783944AF7E","electric_bike","2024-09-06 08:15:30.136","2024-09-06 08:36:10.172","W 15 St & 7 Ave","6030.06","W 54 St & 11 Ave","6955.05",40.73935542,-73.99931783,40.768333,-73.992573,"casual"
"569325DE06DD3A17","electric_bike","2024-09-24 17:08:30.802","2024-09-24 17:12:54.850","Bond St & Fulton St","4479.06","Myrtle Ave & St Edwards St","4659.02",40.6896218879,-73.9830426872,40.69327018,-73.97703874,"member"
"BC8DE61F19EAD35E","electric_bike","2024-09-17 18:32:54.575","2024-09-17 18:54:52.893","W 43 St & 10 Ave","6756.01","Stanton St & Mangin St","5326.06",40.76009437,-73.99461843,40.71782143,-73.97628939,"member"
"0423A75DA194F1FD","classic_bike","2024-09-01 10:53:57.342","2024-09-01 11:10:15.325","Pike St & E Broadway","5270.05","Lafayette St & E 8 St","5788.13",40.71406667,-73.99293911,40.7302066052995,-73.9910262823105,"member"
"95F2607D08A1F55B","classic_bike","2024-09-02 17:34:51.853","2024-09-02 17:43:51.332","N 6 St & Bedford Ave","5379.10","Broadway & Berry St","5164.05",40.71745169,-73.95850939,40.7103612992258,-73.9653038978577,"casual"
"A558E30D7BBF2F26","classic_bike","2024-09-24 09:08:31.761","2024-09-24 09:12:20.537","St Marks Pl & 1 Ave","5626.13","E 13 St & 2 Ave","5820.08",40.72779126,-73.98564945,40.7315393746407,-73.9853024482727,"member"
"C475F2D26C69C72D","classic_bike","2024-09-26 21:48:37.600","2024-09-26 21:58:26.375","Mercer St & Bleecker St","5679.05","E 6 St & Ave B","5584.04",40.7270636334831,-73.9966213703155,40.72453734,-73.98185424,"member"
"47A92A132959D976","electric_bike","2024-09-10 17:11:31.785","2024-09-10 17:24:24.331","St Marks Pl & 1 Ave","5626.13","E 51 St & 1 Ave","6532.06",40.72779126,-73.98564945,40.75455731,-73.96592976,"member"
"DF8CD6C745ACF396","classic_bike","2024-09-04 12:27:54.437","2024-09-04 12:29:54.822","1 Ave & E 6 St","5626.15","E 5 St & Cooper Sq","5712.12",40.726330859717,-73.9861688017845,40.72769,-73.990993,"member"
"237A2C28288F942D","classic_bike","2024-09-09 07:54:01.426","2024-09-09 07:55:21.700","Church St & Worth St","5359.13","Harrison St & Hudson St","5400.05",40.7168853849537,-74.0065012872219,40.71870987,-74.0090009,"member"
"1AD8781473A355B0","electric_bike","2024-09-06 09:52:16.154","2024-09-06 09:58:34.129","E 68 St & Madison Ave","6932.15","E 81 St & Park Ave","7188.1",40.7691572,-73.96703464,40.77677702,-73.9590097,"member"
"3F5A2ECC00593F51","classic_bike","2024-09-14 15:09:19.888","2024-09-14 15:14:32.301","Rivington St & Ridge St","5406.02","Rutgers St & Henry St","5230.02",40.71850211,-73.98329859,40.7133215120819,-73.9900968968868,"member"
"467927C22F481437","classic_bike","2024-09-02 15:11:10.206","2024-09-02 15:31:32.185","Congress St & Clinton St","4455.10","Plaza St West & Flatbush Ave","4010.13",40.68825516598,-73.9954519271851,40.6750207,-73.97111473,"member"
"134796A02A7B3465","classic_bike","2024-09-04 14:54:28.813","2024-09-04 15:07:01.742","West Drive & Prospect Park West","3651.04","Prospect Pl & Vanderbilt Ave","4157.15",40.6610633719006,-73.9794525504112,40.67767534,-73.96902144,"member"
"D96B8FD20D4C6422","electric_bike","2024-09-15 19:16:17.136","2024-09-15 19:54:22.777","Amsterdam Ave & W 73 St","7260.09","9 Ave & W 18 St","6190.08",40.7796680900731,-73.9809304475784,40.74317449,-74.00366443,"member"
"D4974230B22D151E","classic_bike","2024-09-20 15:28:40.382","2024-09-20 16:45:03.118","W 34 St & 11 Ave","6578.01","10 Ave & W 14 St","6157.04",40.75594159,-74.0021163,40.7419815999402,-74.0083158016205,"member"
"4618C8862A9B021E","classic_bike","2024-09-12 14:16:41.163","2024-09-12 14:32:08.264","West End Ave & W 94 St","7524.09","West End Ave & W 60 St","7059.08",40.7941654,-73.974124,40.77237,-73.99005,"member"
"E0D502EF876A0753","classic_bike","2024-09-23 15:41:30.061","2024-09-23 15:49:59.813","W 40 St & 7 Ave","6560.14","8 Ave & W 52 St","6816.07",40.754818,-73.988154,40.76370739,-73.9851615,"member"
"74D53D3A8CF58ABA","electric_bike","2024-09-10 14:21:45.717","2024-09-10 14:37:15.189","Pleasant Ave & E 120 St","7579.01","Columbus Ave & W 95 St","7520.07",40.7974772,-73.9311847,40.7919557,-73.968087,"casual"
"2C19F4C707069F42","electric_bike","2024-09-01 11:44:54.793","2024-09-01 12:17:18.788","W 160 St & Riverside Dr","8176.01","E 48 St & 3 Ave","6541.03",40.83719,-73.9466,40.7546011026,-73.971878855,"member"
"80808B59310A2113","classic_bike","2024-09-17 08:26:41.853","2024-09-17 08:32:33.665","E 3 St & 1 Ave","5553.03","Lafayette St & E 8 St","5788.13",40.72467721,-73.98783413,40.7302066052995,-73.9910262823105,"casual"
"8295B087C6482E5E","electric_bike","2024-09-27 18:06:40.757","2024-09-27 18:30:35.466","Jerome Ave & W Fordham Rd","8586.09","E 165 St & Fox St","7966.02",40.86294,-73.90108,40.82394,-73.894025,"member"
"9CB69041705C3A1B","electric_bike","2024-09-01 14:03:34.114","2024-09-01 14:11:50.588","Melrose Ave & E 150 St","7879.01","W 147 St & Adam Clayton Powell Blvd","7971.07",40.816827,-73.917338,40.82281,-73.937413,"casual"
"A57973B7AE8C077E","classic_bike","2024-09-08 17:31:45.975","2024-09-08 17:34:10.481","E 12 St & Ave C","5616.08","E 14 St & Ave B","5736.09",40.727243,-73.976831,40.72938685,-73.97772429,"member"
"03514F9A32547FA7","electric_bike","2024-09-13 09:53:31.291","2024-09-13 10:01:20.808","3 Ave & Schermerhorn St","4437.01","Hicks St & Montague St","4645.09",40.68683208,-73.9796772,40.69512845,-73.99595065,"member"
"DEED88E0C4EE11DA","electric_bike","2024-09-04 18:37:39.241","2024-09-04 18:54:51.267","W 31 St & 7 Ave","6331.01","W 56 St & 8 Ave","6884.03",40.749156,-73.9916,40.765959181658,-73.9831352233887,"member"
"910EA05227703D4A","classic_bike","2024-09-03 18:43:09.984","2024-09-03 18:47:48.723","Broadway & Moylan Pl","7823.03","Adam Clayton Powell Blvd & W 123 St","7704.04",40.8143256,-73.9590255,40.8078316,-73.949373,"member"
"1BC36985B54BBD2A","electric_bike","2024-09-22 18:56:06.130","2024-09-22 19:29:08.698","Central Park S & 6 Ave","6876.04","Central Park S & 6 Ave","6876.04",40.76590936,-73.97634151,40.76590936,-73.97634151,"casual"
"C6C2C16FD75663BD","electric_bike","2024-09-05 15:57:10.825","2024-09-05 16:01:58.357","Market St & Henry St","5270.09","Reade St & Broadway","5247.10",40.7131070230591,-73.9944635331631,40.71450451,-74.00562789,"member"
"9398090D83F2F04A","electric_bike","2024-09-22 16:22:33.193","2024-09-22 16:40:53.807","Water St & Fletcher St","5024.10","1 Ave & E 6 St","5626.15",40.7064107552361,-74.0055973827839,40.726330859717,-73.9861688017845,"casual"
"670B437DAB99225C","electric_bike","2024-09-09 08:38:14.822","2024-09-09 08:51:02.861","Lafayette Ave & St James Pl","4494.04","Pearl St & York St","4895.15",40.68851534,-73.9647628,40.7014046341064,-73.9876802265644,"member"
"D24A9E735C0DFB8C","electric_bike","2024-09-21 12:12:37.994","2024-09-21 12:53:00.787","Peck Slip & South St","5096.12","W 44 St & 5 Ave","6551.02",40.7075188830923,-74.0010805428028,40.75500254,-73.98014437,"casual"
"02BAE54786E04692","classic_bike","2024-09-06 19:19:41.835","2024-09-06 19:35:08.216","President St & Henry St","4307.13","Adelphi St & Myrtle Ave","4620.02",40.6828003,-73.99990419,40.69308257,-73.97178913,"member"
"A7DD28E0FC00152C","electric_bike","2024-09-17 06:23:22.546","2024-09-17 06:27:31.522","E 48 St & 3 Ave","6541.03","E 33 St & 1 Ave","6197.08",40.7546011026,-73.971878855,40.7432268143217,-73.9744978398085,"member"
"872B8B936E085AAF","electric_bike","2024-09-09 07:24:32.507","2024-09-09 07:48:31.970","S 4 St & Rodney St","5156.05","E 58 St & 3 Ave","6762.02",40.70934,-73.95608,40.76095756,-73.96724467,"member"
"1394BB87F55C96CB","electric_bike","2024-09-15 17:14:39.069","2024-09-15 18:02:08.288","Central Park S & 6 Ave","6876.04","Central Park S & Grand Army Plaza","6839.15",40.76590936,-73.97634151,40.764555,-73.973473,"casual"
"57F7F5328A84C285","electric_bike","2024-09-12 08:44:58.492","2024-09-12 08:51:26.232","Morgan Ave & Lombardy St","5503.01","Greenpoint Ave & West St","5752.09",40.72226,-73.93889,40.729803,-73.959099,"member"
"51DD14175B32B906","classic_bike","2024-09-18 15:42:08.128","2024-09-18 15:58:20.540","Linden St & Knickerbocker Ave","4743.04","Harrison Pl & Porter Ave","5090.06",40.69714,-73.91566,40.70686,-73.92851,"casual"
"27E90A7EB017A24C","classic_bike","2024-09-19 16:57:06.132","2024-09-19 17:00:04.747","30 Ave & 80 St","6787.02","82 St & 30 Ave","6748.04",40.76109,-73.88838,40.76109,-73.88632,"member"
"CC2698796BA05298","classic_bike","2024-09-26 06:09:07.399","2024-09-26 06:35:20.411","Pearl St & Hanover Square","4993.02","E 53 St & 3 Ave","6617.02",40.7047177,-74.00926027,40.7576322773944,-73.9693057537079,"member"
"DD108DE2F70DF321","electric_bike","2024-09-16 19:57:04.763","2024-09-16 20:11:48.640","Melrose St & Broadway","4801.04","S 3 St & Bedford Ave","5235.05",40.697481,-73.935877,40.71260486,-73.96264403,"member"
"96D2AE95F12FEBCC","electric_bike","2024-09-01 20:34:51.144","2024-09-01 20:38:53.154","Moffat St & Bushwick","4357.01","Knickerbocker Ave & Hancock St","4663.02",40.68458,-73.90925,40.69385,-73.90974,"casual"
"F3C1AFA0C8627FB4","electric_bike","2024-09-21 14:51:43.417","2024-09-21 15:17:49.232","University Pl & E 8 St","5755.14","W 42 St & 8 Ave","6602.05",40.7314372408523,-73.9949034154415,40.7575699,-73.99098507,"member"
"F82D23E594077539","electric_bike","2024-09-23 12:38:33.776","2024-09-23 12:42:53.145","8 Ave & W 31 St","6450.05","11 Ave & W 41 St","6726.01",40.7505853470215,-73.9946848154068,40.76030096,-73.99884222,"member"
"9811413E3C09C580","classic_bike","2024-09-03 15:20:08.623","2024-09-03 15:25:43.557","W 31 St & 7 Ave","6331.01","W 13 St & 7 Ave","6030.04",40.749156,-73.9916,40.73781509,-73.99994661,"member"
"18BD89BF2017B4C2","electric_bike","2024-09-06 17:36:09.499","2024-09-06 17:41:58.611","Great Jones St","5636.11","Christopher St & Greenwich St","5847.01",40.72743423,-73.99379025,40.73291553,-74.00711384,"member"
"0C283903F85E724F","classic_bike","2024-09-27 15:21:03.928","2024-09-27 15:29:07.994","Caton Ave & E 10 St","3230.01","Prospect Ave & Greenwood Ave","3312.07",40.648481,-73.97058,40.651745,-73.975988,"member"
"6EBE0083A9AA2724","classic_bike","2024-09-20 15:24:59.483","2024-09-20 15:30:00.621","E 51 St & Lexington Ave","6659.01","Broadway & W 51 St","6779.04",40.75714758,-73.97207836,40.76228826,-73.98336183,"member"
"1272BCF68E71CFEC","classic_bike","2024-09-22 14:52:48.038","2024-09-22 15:19:07.585","Icahn Stadium Plaza","7514.06","East End Ave & E 86 St","7113.08",40.79322,-73.92396,40.77518615,-73.94446054,"casual"
"DB2922ECCAD1C07D","classic_bike","2024-09-12 16:58:03.717","2024-09-12 17:43:30.319","Frederick Douglass Blvd & W 112 St","7631.23","W 181 St & Riverside Dr","8381.04",40.801694,-73.957145,40.85168,-73.94186,"member"
"1E0AB81355628DC7","electric_bike","2024-09-10 12:27:48.356","2024-09-10 12:58:11.673","Orchard St & Grand St","5343.11","Cambridge Pl & Gates Ave","4377.04",40.7173184038558,-73.9906775951385,40.68488,-73.96304,"member"
"0BA95B294621D05B","electric_bike","2024-09-07 19:16:16.101","2024-09-07 19:28:15.970","E 27 St & Park Ave S","6131.13","W 20 St & 8 Ave","6224.05",40.74275179649,-73.9847157150507,40.74345335,-74.00004031,"casual"
"7535AF60858077F3","classic_bike","2024-09-19 07:45:20.912","2024-09-19 08:15:10.746","Catherine St & Monroe St","5128.04","W 42 St & Dyer Ave","6644.07",40.71117444,-73.99682619,40.7589848139963,-73.9937996864319,"member"
"A23BE8F3817AE324","electric_bike","2024-09-26 13:40:08.461","2024-09-26 13:45:11.015","Albany St & Greenwich St","5145.02","Franklin St & W Broadway","5430.08",40.709267,-74.013247,40.71911552,-74.00666661,"member"
"8CB1A569D0A8C3B1","electric_bike","2024-09-07 01:17:38.860","2024-09-07 01:25:36.226","Jefferson St & Cypress Ave","5082.08","Norman St & Wyckoff Ave","4654.01",40.70907,-73.92157,40.69517,-73.90311,"casual"
"442F1763FB8CB9D8","classic_bike","2024-09-02 07:11:04.660","2024-09-02 07:12:21.614","W 20 St & 10 Ave","6306.01","W 22 St & 10 Ave","6306.06",40.745686,-74.005141,40.74691959,-74.00451887,"member"
"171D292216A504D0","classic_bike","2024-09-10 09:45:31.193","2024-09-10 10:49:39.823","11 Ave & W 59 St","7059.01","11 Ave & W 59 St","7059.01",40.7714967105444,-73.9904603362083,40.7714967105444,-73.9904603362083,"casual"
"FA95CE92B98FE6A6","electric_bike","2024-09-09 16:14:33.000","2024-09-09 16:25:33.059","E 72 St & York Ave","6889.12","E 91 St & Park Ave","7344.05",40.76663814,-73.95348296,40.7835016,-73.955327,"member"
"626FD0A05901DBF2","electric_bike","2024-09-05 14:36:14.965","2024-09-05 14:44:59.229","8 Ave & W 49 St","6747.07","11 Ave & W 59 St","7059.01",40.7617122791067,-73.9865510165691,40.7714967105444,-73.9904603362083,"member"
"9B89C0FCBA1E8D87","classic_bike","2024-09-16 10:36:37.932","2024-09-16 10:41:01.295","Norfolk St & Broome St","5374.01","Henry St & Grand St","5294.04",40.7172274,-73.98802084,40.714211,-73.981095,"member"
"7021A80BF4A7D4F0","electric_bike","2024-09-02 17:50:24.032","2024-09-02 17:53:33.753","W 47 St & 9 Ave","6786.02","W 56 St & 8 Ave","6884.03",40.7615304515811,-73.9900700747967,40.765959181658,-73.9831352233887,"member"
"11B52DC96D8F65EA","electric_bike","2024-09-04 10:11:15.114","2024-09-04 10:39:07.570","W 52 St & 6 Ave","6740.01","Broadway & W 133 St","7903.02",40.7613298312481,-73.9798200130463,40.8190344,-73.956156,"member"
"B811687FA931CD99","classic_bike","2024-09-18 12:13:18.774","2024-09-18 12:16:03.218","Bus Slip & State St","4889.06","Little West St & 1 Pl","5001.08",40.701907,-74.013942,40.70569254,-74.01677685,"member"
"0C2E7BD1B47EA893","electric_bike","2024-09-05 19:02:10.985","2024-09-05 19:15:47.134","Knickerbocker Ave & Halsey St","4623.02","Myrtle Ave & Lewis Ave","4729.01",40.693,-73.90824,40.69681963,-73.93756926,"member"
"DF1248C90AA1CE09","electric_bike","2024-09-13 16:07:18.214","2024-09-13 16:11:22.962","Lexington Ave & E 29 St","6164.09","1 Ave & E 30 St","6079.03",40.7431155537649,-73.9821535348892,40.74144387,-73.97536082,"member"
"2375F1315A320DD2","classic_bike","2024-09-24 15:51:18.530","2024-09-24 16:34:21.624","Pier 61 at Chelsea Piers","6233.04","Central Park West & W 85 St","7354.01",40.746872,-74.00821,40.78476,-73.969862,"casual"
"73FBD79131481C75","electric_bike","2024-09-06 11:15:26.974","2024-09-06 11:19:03.641","Bergen St & Vanderbilt Ave","4157.10","Prospect Pl & Underhill Ave","4116.08",40.6794388,-73.9680438,40.6769694,-73.96579,"member"
"7F0C8943652ED7E4","electric_bike","2024-09-28 18:03:49.657","2024-09-28 18:20:57.702","Duane St & Hudson St","5359.12","Christopher St & Greenwich St","5847.01",40.71703,-74.00925,40.73291553,-74.00711384,"casual"
"0BDC40C5B3335247","classic_bike","2024-09-20 09:42:11.256","2024-09-20 09:49:24.729","West Drive & Prospect Park West","3651.04","6 Ave & 21 St","3628.11",40.6610633719006,-73.9794525504112,40.66016,-73.990974,"member"
"1BE08DC506E6604F","electric_bike","2024-09-04 13:58:01.952","2024-09-04 14:11:40.382","E 91 St & Park Ave","7344.05","W 67 St & Broadway","7116.04",40.7835016,-73.955327,40.77492513,-73.98266566,"member"
"11E5D45214C3E994","electric_bike","2024-09-30 08:57:50.596","2024-09-30 09:17:42.940","E 169 St & Webster Ave","8122.04","5 Ave & W 126 St","7701.21",40.834015,-73.908863,40.80722,-73.9418,"member"
"44FA0E9163853AED","electric_bike","2024-09-07 17:45:31.587","2024-09-07 17:56:49.028","W 12 St & Hudson St","5997.10","Bleecker St & Crosby St","5679.08",40.7375299330107,-74.0055893361568,40.7261560498041,-73.9951018989086,"member"
"74EC0E166D92E2E7","electric_bike","2024-09-06 17:37:08.690","2024-09-06 18:06:02.662","Graham Ave & Grand St","5178.06","Waldron St & 108 St","6020.02",40.711863,-73.944024,40.73916,-73.8526,"member"
"9B24098441697454","electric_bike","2024-09-03 18:36:09.271","2024-09-03 18:41:38.492","Broadway & E 21 St","6098.10","8 Ave & W 27 St","6297.07",40.73988840859,-73.9895859360695,40.747968,-73.996637,"member"
"BEEE5DE3718BFAC6","classic_bike","2024-09-08 14:55:53.845","2024-09-08 15:26:44.128","Fulton St & William St","5137.11","West St & Chambers St","5329.03",40.7096008936354,-74.0065509080887,40.71754834,-74.01322069,"casual"
"EA943A94789D0CDC","classic_bike","2024-09-13 17:50:13.147","2024-09-13 18:06:03.906","Pier 40 - Hudson River Park","5696.03","Broadway & E 14 St","5905.12",40.7277140777778,-74.011295735836,40.73454567,-73.99074142,"member"
"0B5EA21ADF570CE9","classic_bike","2024-09-19 08:27:18.671","2024-09-19 08:31:00.428","W 21 St & 6 Ave","6140.05","E 16 St & 5 Ave","6022.04",40.74173969,-73.99415556,40.73726186,-73.99238967,"member"
"B16377E54066CB07","electric_bike","2024-09-19 17:49:56.231","2024-09-19 17:52:52.217","W 25 St & 9 Ave","6339.06","8 Ave & W 31 St","6450.05",40.7478326058377,-74.0005722643582,40.7505853470215,-73.9946848154068,"member"
"62018309E29D12A3","classic_bike","2024-09-15 11:41:30.725","2024-09-15 12:10:13.966","30 Ave & 80 St","6787.02","38 Ave & 29 St","6538.11",40.76109,-73.88838,40.75473,-73.93367,"member"
"A515B0D8EFAB9322","classic_bike","2024-09-24 05:19:54.819","2024-09-24 05:28:07.898","8 Ave & W 31 St","6450.05","E 44 St & Lexington Ave","6464.09",40.7505853470215,-73.9946848154068,40.752643,-73.974996,"member"
"AA943CC779F3DF12","electric_bike","2024-09-22 15:07:27.538","2024-09-22 15:21:09.357","Hicks St & Montague St","4645.09","Warren St & Smith St","4371.01",40.69512845,-73.99595065,40.6854240099702,-73.9912777394056,"member"
"BA8152C478CF62F5","electric_bike","2024-09-19 06:55:41.006","2024-09-19 07:08:02.882","S 4 St & Wythe Ave","5204.05","DeKalb Ave & Vanderbilt Ave","4461.04",40.71285887,-73.96590294,40.68940747,-73.96885458,"member"
"CDA488BC1D335F79","electric_bike","2024-09-30 17:41:37.745","2024-09-30 17:53:49.385","6 Ave & W 45 St","6593.15","West End Ave & W 60 St","7059.08",40.756951,-73.982631,40.77237,-73.99005,"member"
"9FD831FADFE929F4","electric_bike","2024-09-14 19:19:59.888","2024-09-14 19:31:30.844","1 Ave & E 6 St","5626.15","Broadway & W 29 St","6289.06",40.726330859717,-73.9861688017845,40.7462009,-73.98855723,"member"
"CCF9CF25C9ABEA68","electric_bike","2024-09-21 00:41:44.047","2024-09-21 00:55:49.153","1 Ave & E 6 St","5626.15","Wythe Ave & Metropolitan Ave","5348.02",40.726330859717,-73.9861688017845,40.716887,-73.963198,"casual"
"CE481AABB1A2FA6A","electric_bike","2024-09-21 09:12:50.072","2024-09-21 09:17:38.007","Putnam Ave & Nostrand Ave","4327.09","Underhill Ave & Pacific St","4231.04",40.68402,-73.94977,40.6804836,-73.9646795,"casual"
"D9CD94A7F3B177FF","electric_bike","2024-09-26 07:08:11.011","2024-09-26 07:16:17.360","Madison Ave & E 26 St","6131.12","W 48 St &  Rockefeller Plaza","6626.11",40.7426847348757,-73.9867132902145,40.7577693544831,-73.9792943000793,"member"
"068EB79350BD230E","electric_bike","2024-09-25 08:17:13.585","2024-09-25 08:25:35.741","3 Ave & E 172 St","8205.05","Morris Ave & E 163 St","8036.05",40.839586,-73.900277,40.8272304996247,-73.9176557959763,"casual"
"671C3F42F4B1053B","electric_bike","2024-09-06 00:02:34.559","2024-09-06 00:26:25.992","Mercer St & Bleecker St","5679.05","W 59 St & 10 Ave","7023.04",40.7270636334831,-73.9966213703155,40.770513,-73.988038,"member"
"4CEEA6F5717E8A00","classic_bike","2024-09-08 08:42:00.151","2024-09-08 08:50:04.603","1 Ave & E 6 St","5626.15","E 20 St & FDR Dr","5886.13",40.726330859717,-73.9861688017845,40.7332086265224,-73.9756813647,"member"
"71E4959FF42A2D6E","electric_bike","2024-09-07 14:31:53.736","2024-09-07 15:46:33.952","E 48 St & 3 Ave","6541.03","Spring St & Hudson St","5653.12",40.7546011026,-73.971878855,40.7258399679237,-74.0076532959938,"casual"
"0744521EADD59B04","electric_bike","2024-09-19 12:16:30.242","2024-09-19 12:25:25.083","Christopher St & Greenwich St","5847.01","E 4 St & 2 Ave","5593.04",40.73291553,-74.00711384,40.7262807,-73.98978041,"member"
"7A99AFDE95FCAA7A","classic_bike","2024-09-12 08:06:59.640","2024-09-12 08:11:48.193","Sterling Pl & 5 Ave","4208.01","5 Ave & 3 St","3987.06",40.6789700704757,-73.9785526692867,40.6728155,-73.98352355,"member"
"FA1F1A5E7D0A857C","electric_bike","2024-09-23 10:59:06.799","2024-09-23 11:02:26.972","Knickerbocker Ave & Thames St","5018.06","Stockholm St & Wilson Ave","4824.03",40.70539,-73.92976,40.699304,-73.923044,"member"
"F74F32EF1E88BB70","electric_bike","2024-09-20 21:46:06.159","2024-09-20 22:07:32.753","Driggs Ave & S 2 St","5235.10","Lincoln Pl & Nostrand Ave","3952.07",40.712628,-73.960575,40.67077,-73.9507,"casual"
"6E481FA2ACF240B2","classic_bike","2024-09-27 00:02:14.742","2024-09-27 00:24:12.481","8 Ave & W 31 St","6450.05","Rivington St & Chrystie St","5453.01",40.7505853470215,-73.9946848154068,40.72110063,-73.9919254,"casual"
"71EFFF8A8D027B54","electric_bike","2024-09-13 09:10:30.930","2024-09-13 09:15:10.216","Water St & Fletcher St","5024.10","Centre St & Worth St","5279.03",40.7064107552361,-74.0055973827839,40.71494807,-74.00234482,"member"
"89CC2BEEEE75FC70","classic_bike","2024-09-10 20:25:42.710","2024-09-10 20:53:13.133","W 50 St & 10 Ave","6890.06","W 16 St & The High Line","6233.05",40.7647342000652,-73.9919435977936,40.74334935,-74.00681753,"casual"
"A484F48953F9539D","classic_bike","2024-09-06 10:37:56.594","2024-09-06 10:43:28.702","W 25 St & 9 Ave","6339.06","9 Ave & W 18 St","6190.08",40.7478326058377,-74.0005722643582,40.74317449,-74.00366443,"member"
"1C290BE1C48D7265","classic_bike","2024-09-07 18:48:13.823","2024-09-07 19:07:01.224","New York Ave & St Marks Ave","4098.06","Warren St & Smith St","4371.01",40.67514,-73.94716,40.6854240099702,-73.9912777394056,"member"
"F6183B53983C378B","electric_bike","2024-09-04 11:02:16.054","2024-09-04 11:05:47.159","8 Ave & W 16 St","6072.11","E 16 St & 5 Ave","6022.04",40.740983,-74.001702,40.73726186,-73.99238967,"member"
"C54A9FDD389FB550","electric_bike","2024-09-12 19:38:46.669","2024-09-12 19:43:16.220","Crown St & Rogers Ave","3768.02","Winthrop St & Nostrand Ave","3544.02",40.66639,-73.95346,40.65707,-73.95005,"member"
"2463F56B253E7FF4","electric_bike","2024-09-14 13:54:08.551","2024-09-14 14:14:48.877","Driggs Ave & S 2 St","5235.10","Bank St & Hudson St","5922.08",40.712628,-73.960575,40.73652889,-74.00618026,"member"
"3A0AFB75A0C6E31D","electric_bike","2024-09-14 14:56:31.294","2024-09-14 15:18:25.265","3 Ave & Schermerhorn St","4437.01","Kent Ave & Grand St","5388.01",40.68683208,-73.9796772,40.716425,-73.96594,"casual"
"73F97878756CAE4C","electric_bike","2024-09-10 15:24:49.260","2024-09-10 15:45:35.428","N 12 St & Bedford Ave","5450.04","Hancock St & Bedford Ave","4255.05",40.72079821,-73.95484712,40.68216564,-73.95399026,"member"
"E6C78947F73B0B9D","classic_bike","2024-09-04 18:31:53.691","2024-09-04 18:41:09.831","9 Ave & W 22 St","6266.06","10 Ave & W 14 St","6157.04",40.7454973,-74.00197139,40.7419815999402,-74.0083158016205,"casual"
"BCFCF788B99DC825","electric_bike","2024-09-13 05:58:39.705","2024-09-13 06:09:03.101","Amsterdam Ave & W 73 St","7260.09","E 72 St & York Ave","6889.12",40.7796680900731,-73.9809304475784,40.76663814,-73.95348296,"member"
"83458CEBEED02851","electric_bike","2024-09-19 13:57:28.132","2024-09-19 14:05:36.130","Broadway & W 157 St","8123.06","Fort Washington Ave & W 183 St","8399.06",40.8340274014353,-73.9451081344265,40.852252,-73.937854,"member"
"F03BAAE6D33A52DC","electric_bike","2024-09-19 13:27:29.145","2024-09-19 13:34:13.813","Fulton Ave & E 172 St","8186.01","Westchester Ave & Southern Blvd","8004.03",40.839229,-73.899047,40.824956,-73.891677,"member"
"5F457FA6C3B0D410","electric_bike","2024-09-05 17:55:17.993","2024-09-05 18:12:57.035","8 Ave & W 31 St","6450.05","E 63 St & 3 Ave","6830.02",40.7505853470215,-73.9946848154068,40.763954,-73.9646,"casual"
"7E37CEFF0CBE22E5","classic_bike","2024-09-03 11:57:04.512","2024-09-03 11:58:58.736","Bushwick Ave & Harman St","4640.01","Grove St & Broadway","4526.01",40.69356,-73.92524,40.69047,-73.923511,"member"
"C264B6E3019FA3F0","classic_bike","2024-09-11 18:42:15.222","2024-09-11 18:43:40.793","Pearl St & York St","4895.15","Cadman Plaza E & Red Cross Pl","4821.06",40.7014046341064,-73.9876802265644,40.69991755,-73.98971773,"member"
"6C3484AF274F013B","classic_bike","2024-09-15 09:51:29.454","2024-09-15 10:15:05.269","Windsor Pl & Howard Pl","3579.04","Schermerhorn St & Hoyt St","4479.10",40.659490558939,-73.980139195919,40.6886263,-73.9851911,"member"
"9D945B829CB4B376","electric_bike","2024-09-21 19:24:06.160","2024-09-21 19:44:06.084","48 St & Barnett Ave","6358.05","Center Blvd & 48 Ave","6254.06",40.7500164042593,-73.9154094457626,40.745038,-73.957539,"casual"
"EED7F09DEA6FC7C1","classic_bike","2024-09-13 16:47:54.263","2024-09-13 16:52:57.207","E 88 St & 1 Ave","7235.13","E 102 St & 1 Ave","7407.13",40.778301,-73.9488134,40.7869946,-73.94164802,"member"
"2B1BC995AD95AF51","classic_bike","2024-09-22 18:06:34.763","2024-09-22 18:24:59.387","W 47 St & 9 Ave","6786.02","E 30 St & Park Ave S","6206.08",40.7615304515811,-73.9900700747967,40.74444921,-73.98303529,"casual"
"8DC38D9CFBCCCD5F","classic_bike","2024-09-10 07:55:28.932","2024-09-10 08:01:33.143","Melrose St & Broadway","4801.04","Willoughby Ave & Tompkins Ave","4665.02",40.697481,-73.935877,40.69425403,-73.94626915,"member"
"9555C50CD0C6D6DD","electric_bike","2024-09-23 19:44:41.405","2024-09-23 19:49:59.798","W 147 St & Adam Clayton Powell Blvd","7971.07","Lenox Ave & W 126 St","7720.03",40.82281,-73.937413,40.808442,-73.9452087,"member"
"763DE3DDB60174A3","electric_bike","2024-09-12 07:49:09.021","2024-09-12 07:56:32.640","Clermont Ave & Lafayette Ave","4461.01","Plaza St West & Flatbush Ave","4010.13",40.68764484,-73.96968902,40.6750207,-73.97111473,"member"
"2F3D0058D8C3B9EC","classic_bike","2024-09-09 14:36:08.616","2024-09-09 14:52:43.184","Morningside Ave & W 123 St","7741.01","Amsterdam Ave & W 73 St","7260.09",40.81,-73.9551508,40.7796680900731,-73.9809304475784,"member"
"A650F7812CE49E71","classic_bike","2024-09-18 18:40:52.249","2024-09-18 19:02:31.391","Pearl St & Whitehall St","4962.09","E 6 St & Ave B","5584.04",40.703144,-74.013178,40.72453734,-73.98185424,"casual"
"C101B200FC4FBB4E","classic_bike","2024-09-11 13:34:21.737","2024-09-11 13:48:46.508","Wallabout St & Kent Ave","4826.04","Sands St & Jay St","4821.03",40.6991049,-73.960633406,40.700119,-73.9862,"casual"
"E5BF6127C7DBC7FA","electric_bike","2024-09-19 06:01:10.346","2024-09-19 06:05:10.308","Bleecker St & Crosby St","5679.08","Greenwich St & W Houston St","5730.08",40.7261560498041,-73.9951018989086,40.728846,-74.008591,"casual"
"ED7BC611B9571E1B","classic_bike","2024-09-10 14:03:19.449","2024-09-10 14:13:16.648","9 Ave & W 33 St","6492.08","W 47 St & 9 Ave","6786.02",40.752568,-73.996765,40.7615304515811,-73.9900700747967,"member"
"FF5DE8EB366A8E2B","electric_bike","2024-09-09 08:31:28.812","2024-09-09 08:48:11.525","W 95 St & Broadway","7541.01","Broadway & W 51 St","6779.04",40.7937704,-73.971888,40.76228826,-73.98336183,"member"
"D1548C322EB5007D","classic_bike","2024-09-13 10:41:26.334","2024-09-13 11:07:39.853","E 91 St & Park Ave","7344.05","W 40 St & 7 Ave","6560.14",40.7835016,-73.955327,40.754818,-73.988154,"member"
"24FC0373782E98B6","classic_bike","2024-09-18 07:45:56.558","2024-09-18 07:58:29.501","1 Ave & E 38 St","6230.02","W 55 St & 6 Ave","6809.09",40.746202,-73.971822,40.763189,-73.978434,"member"
"56F37331706FC827","electric_bike","2024-09-16 12:41:07.927","2024-09-16 12:45:02.739","9 Ave & W 33 St","6492.08","11 Ave & W 41 St","6726.01",40.752568,-73.996765,40.76030096,-73.99884222,"member"
"00ECF5913378364C","electric_bike","2024-09-14 17:22:58.184","2024-09-14 17:27:49.370","Riverside Dr & W 82 St","7388.10","W 70 St & Amsterdam Ave","7207.08",40.78720869,-73.98128127,40.77748046,-73.98288594,"member"
"BBA08D17DBBCE5AB","electric_bike","2024-09-19 15:18:06.554","2024-09-19 15:38:48.530","Henry St & W 9 St","4086.06","Rugby Rd & Albemarle Rd","3188.04",40.6763744,-74.00324957,40.64672,-73.96637,"member"
"F6066F436F50AE2B","electric_bike","2024-09-01 16:02:05.336","2024-09-01 16:11:34.541","Sullivan St & Washington Sq","5721.01","E 17 St & 2 Ave","5896.01",40.73047747,-73.99906065,40.7343116627657,-73.983725309372,"member"
"AD8586BED9A3FA41","classic_bike","2024-09-14 16:40:56.471","2024-09-14 17:04:23.598","Central Park S & Grand Army Plaza","6839.15","E 22 St & 2 Ave","5971.09",40.764555,-73.973473,40.7371691936988,-73.9812254905701,"member"
"E307B0B1AA1D33B5","electric_bike","2024-09-14 12:10:25.665","2024-09-14 12:16:44.933","Atlantic Ave & Furman St","4614.04","Jay St & York St","4895.09",40.69165183,-73.9999786,40.7014031725773,-73.9867267012596,"casual"
"200C3A8C693571AF","electric_bike","2024-09-19 14:30:12.174","2024-09-19 14:34:14.550","3 St & 7 Ave","3905.15","West Drive & Prospect Park West","3651.04",40.6703837,-73.97839676,40.6610633719006,-73.9794525504112,"member"
"BCABB9256FE73B82","electric_bike","2024-09-29 19:51:43.587","2024-09-29 20:05:25.346","Central Park West & W 85 St","7354.01","W 47 St & 9 Ave","6786.02",40.78476,-73.969862,40.7615304515811,-73.9900700747967,"member"
"3AF4B52B4DE9AB17","electric_bike","2024-09-06 09:19:59.402","2024-09-06 09:23:17.270","62 St & 4 Ave","2923.01","58 St & 2 Ave","3138.09",40.639859,-74.019776,40.644512,-74.021506,"member"
"2EB37BAB1B6C59B4","classic_bike","2024-09-18 17:00:20.587","2024-09-18 17:18:49.509","E 48 St & 3 Ave","6541.03","9 Ave & W 22 St","6266.06",40.7546011026,-73.971878855,40.7454973,-74.00197139,"casual"
"365CD71937C7C862","electric_bike","2024-09-04 09:04:57.868","2024-09-04 09:17:44.413","E 20 St & Park Ave","6055.08","Bank St & Washington St","5964.01",40.73827428,-73.98751968,40.7361967,-74.00859207,"member"
"FC454BB3AFE593D9","electric_bike","2024-09-22 09:01:42.078","2024-09-22 09:06:29.137","Devoe St & Lorimer St","5259.06","Driggs Ave & S 2 St","5235.10",40.7133522622288,-73.9491033554077,40.712628,-73.960575,"casual"
"AD48B74282063F20","electric_bike","2024-09-09 16:06:49.330","2024-09-09 16:17:11.885","E 3 St & 1 Ave","5553.03","Broadway & W 25 St","6173.08",40.72467721,-73.98783413,40.7428687731211,-73.9891862869263,"casual"
"2C302882FAC37EA9","classic_bike","2024-09-24 17:17:14.894","2024-09-24 17:44:40.911","Broadway & W 25 St","6173.08","Broadway & W 56 St","6847.02",40.7428687731211,-73.9891862869263,40.7652654,-73.98192338,"member"
"306D282223A98B22","electric_bike","2024-09-16 06:33:12.077","2024-09-16 06:42:30.051","E 22 St & 2 Ave","5971.09","W 35 St & Dyer Ave","6569.08",40.7371691936988,-73.9812254905701,40.754691750226,-73.9974018931389,"member"
"E88C4D6AB2973409","classic_bike","2024-09-25 07:36:32.402","2024-09-25 07:52:15.961","Amsterdam Ave & W 73 St","7260.09","W 36 St & 9 Ave","6569.07",40.7796680900731,-73.9809304475784,40.7546232402911,-73.9951676130295,"member"
"73C4B7EEC09D77C1","classic_bike","2024-09-04 10:56:57.964","2024-09-04 11:10:43.392","Kent Ave & Grand St","5388.01","Kent Ave & Grand St","5388.01",40.716425,-73.96594,40.716425,-73.96594,"member"
"75AE1AFA0497418C","electric_bike","2024-09-18 13:01:07.987","2024-09-18 13:22:37.624","Vesey St & Church St","5216.06","11 Ave & W 41 St","6726.01",40.7122195800905,-74.0104722976685,40.76030096,-73.99884222,"casual"
"E7C4826C17AD4727","electric_bike","2024-09-10 20:32:45.611","2024-09-10 20:33:55.236","Greenpoint Ave & Manhattan Ave","5785.05","Greenpoint Ave & Manhattan Ave","5785.05",40.73026,-73.95394,40.73026,-73.95394,"casual"
"F6FD2B65362CDBB5","electric_bike","2024-09-27 20:46:06.736","2024-09-27 20:50:37.141","Canal St & Rutgers St","5303.08","Henry St & Grand St","5294.04",40.71427487,-73.98990025,40.714211,-73.981095,"member"
"76ED8726B81BDEAB","classic_bike","2024-09-30 16:06:16.770","2024-09-30 16:25:19.028","W 56 St & 6 Ave","6809.07","MacDougal St & Prince St","5687.04",40.76340613,-73.97722479,40.72710258,-74.00297088,"member"
"25BB6123471E9CFE","classic_bike","2024-09-25 19:18:53.975","2024-09-25 19:29:34.837","E 11 St & 3 Ave","5788.16","E 14 St & Ave B","5736.09",40.73127,-73.98849,40.72938685,-73.97772429,"member"
"83CED079E388221A","classic_bike","2024-09-17 11:50:22.719","2024-09-17 11:54:15.028","1 Ave & E 16 St","5779.08","1 Ave & E 6 St","5626.15",40.73221853,-73.98165557,40.726330859717,-73.9861688017845,"member"
"B0049B5073EBF6A2","electric_bike","2024-09-22 19:32:54.967","2024-09-22 19:38:31.590","Adam Clayton Powell Blvd & W 132 St","7814.01","W 111 St & 5 Ave","7587.16",40.813539,-73.94521,40.7975207812475,-73.9489397406578,"member"
"3B218C99D8EEAD74","electric_bike","2024-09-19 09:10:54.016","2024-09-19 09:16:47.123","Broadway & E 14 St","5905.12","W 18 St & 6 Ave","6064.08",40.73454567,-73.99074142,40.73971301,-73.99456405,"member"
"90E8F471C657FBCB","electric_bike","2024-09-21 20:40:55.897","2024-09-21 20:53:04.376","E 13 St & 2 Ave","5820.08","Lispenard St & Broadway","5391.06",40.7315393746407,-73.9853024482727,40.71939226,-74.00247214,"member"
"2DB9F37C5A73418D","electric_bike","2024-09-22 15:33:17.431","2024-09-22 15:51:10.947","Lafayette Ave & Ft Greene Pl","4470.09","Suydam St & Broadway","4689.03",40.6870023129262,-73.9766496419907,40.69544,-73.93223,"casual"
"E956A926710452D8","electric_bike","2024-09-24 15:38:04.414","2024-09-24 15:47:53.096","30 St & 48 Ave","6076.02","Graham Ave & Withers St","5403.04",40.7413272,-73.937999,40.7169811,-73.94485918,"member"
"D1DA73B0A01E2534","electric_bike","2024-09-19 09:27:11.393","2024-09-19 09:44:40.739","Ave D & E 12 St","5575.08","Waterbury St & Stagg St","5099.02",40.72580614,-73.97422494,40.71019,-73.93734,"member"
"DD4163B47A165DEA","electric_bike","2024-09-07 12:52:42.736","2024-09-07 13:05:48.797","Central Park S & 6 Ave","6876.04","E 95 St & 3 Ave","7365.13",40.76590936,-73.97634151,40.7849032,-73.950503,"member"
"2F6717D90696E8D9","classic_bike","2024-09-02 15:20:35.879","2024-09-02 15:33:35.100","Central Park North & Adam Clayton Powell Blvd","7617.07","W 106 St & Central Park West","7606.01",40.799484,-73.955613,40.7981856,-73.9605909006,"casual"
"119185D32BAD67CC","electric_bike","2024-09-23 19:44:03.680","2024-09-23 20:22:23.469","Broadway & W 25 St","6173.08","E 31 St & 3 Ave","6239.08",40.7428687731211,-73.9891862869263,40.74394314,-73.97966069,"member"
"328DEB72750123C9","electric_bike","2024-09-07 19:23:38.174","2024-09-07 19:43:35.754","W 30 St & 10 Ave","6459.07","E 4 St & Ave B","5515.08",40.752694,-74.002353,40.7233468321802,-73.9826591312885,"member"
"43D6C4052C126435","classic_bike","2024-09-14 02:09:37.994","2024-09-14 02:18:01.754","8 Ave & W 16 St","6072.11","10 Ave & W 28 St","6459.04",40.740983,-74.001702,40.75066386,-74.00176802,"member"
"51C86FE49E58159F","electric_bike","2024-09-09 13:25:32.142","2024-09-09 13:55:13.838","DeKalb Ave & Hudson Ave","4513.06","E 10 St & Ave A","5659.05",40.689888,-73.981013,40.72740794,-73.98142006,"casual"
"370506471643FBA4","electric_bike","2024-09-25 22:36:56.173","2024-09-25 22:50:22.194","E 16 St & 5 Ave","6022.04","Bayard St & Baxter St","5351.03",40.73726186,-73.99238967,40.71602118,-73.99974372,"member"
"11F04561B6AD5BDB","electric_bike","2024-09-12 06:09:18.429","2024-09-12 06:10:39.035","3 Ave & E 82 St","7154.10","E 85 St & 3 Ave","7212.05",40.775744,-73.9563752,40.77801203,-73.95407149,"member"
"F94F95C6BDEE90E2","classic_bike","2024-09-04 15:55:57.357","2024-09-04 16:01:25.353","Columbus Ave & W 95 St","7520.07","W 106 St & Amsterdam Ave","7634.01",40.7919557,-73.968087,40.8008363,-73.9664492472,"member"
"021472A1310B0EEC","electric_bike","2024-09-01 21:24:24.111","2024-09-01 21:32:43.643","N 12 St & Bedford Ave","5450.04","Morgan Ave & Lombardy St","5503.01",40.72079821,-73.95484712,40.72226,-73.93889,"casual"
"C2C88EEEFA1350AF","classic_bike","2024-09-18 08:01:12.607","2024-09-18 08:08:18.236","E 17 St & Broadway","5980.10","W 31 St & 7 Ave","6331.01",40.737006,-73.990134,40.749156,-73.9916,"member"
"BE521F8F20A8F1F0","classic_bike","2024-09-22 17:43:48.681","2024-09-22 18:10:57.049","Schenectady Ave & Prospect Pl","4007.01","S 4 St & Rodney St","5156.05",40.67351,-73.93363,40.70934,-73.95608,"member"
"1A8364918AA5D234","electric_bike","2024-09-13 09:27:58.161","2024-09-13 09:34:53.232","W 22 St & 8 Ave","6224.03","Broadway & W 41 St","6560.01",40.74475148,-73.99915362,40.75513557,-73.98658032,"member"
"F5F6F653332674B3","electric_bike","2024-09-01 18:58:03.803","2024-09-01 19:14:14.816","E 20 St & FDR Dr","5886.13","Broadway & W 25 St","6173.08",40.7332086265224,-73.9756813647,40.7428687731211,-73.9891862869263,"member"
"20D326F017369387","electric_bike","2024-09-05 12:59:37.717","2024-09-05 13:02:05.488","31 St & Broadway","6789.20","23 St & 31 Ave","6929.01",40.76211,-73.92523,40.7666397172309,-73.9286595582962,"member"
"4591E8EED11461EB","electric_bike","2024-09-11 22:17:29.847","2024-09-11 22:37:39.389","Mt Morris Park W & W 120 St","7685.14","E 54 St & 1 Ave","6608.09",40.804038,-73.945925,40.756265,-73.964179,"member"
"6945C8CD34E28562","electric_bike","2024-09-03 15:22:10.900","2024-09-03 15:25:53.095","24 St & 38 Ave","6581.14","21 St & Queens Plaza North","6471.02",40.756351,-73.936515,40.75325964,-73.94335788,"member"
"61A299F5C7F14981","electric_bike","2024-09-23 16:20:11.541","2024-09-23 16:31:32.321","E New York Ave & Troy Ave","3680.04","Flatbush Ave & Lincoln Rd","3593.1",40.66227,-73.93762,40.66131,-73.96091,"member"
"789268E11AA35D69","electric_bike","2024-09-29 13:22:10.702","2024-09-29 13:28:20.936","Degraw St & Smith St","4298.05","Bergen St & 4 Ave","4322.06",40.6829151,-73.99318208,40.6825642575969,-73.9798977971077,"member"
"870740CD96416FCD","electric_bike","2024-09-15 22:27:23.785","2024-09-15 22:40:29.680","E 171 St & Webster Ave","8190.03","Ogden Ave & W 165 St","8149.09",40.838379,-73.905838,40.834457,-73.928381,"member"
"44DF2773CF08BE82","electric_bike","2024-09-14 10:59:42.887","2024-09-14 11:06:23.379","Vernon Blvd & 10 St","6937.07","38 St & 30 Ave","6850.01",40.7671863,-73.9373554,40.7641745201977,-73.9158399403095,"member"
"9147CC154BE14349","classic_bike","2024-09-11 23:35:00.255","2024-09-11 23:44:28.740","5 Ave & 3 St","3987.06","Underhill Ave & Lincoln Pl","4042.08",40.6728155,-73.98352355,40.6740123,-73.9671457,"member"
"1248D9ADAFF00466","electric_bike","2024-09-19 17:01:58.921","2024-09-19 17:21:05.657","W 52 St & 5 Ave","6700.01","E 2 St & Ave C","5476.03",40.75992262,-73.97648516,40.7208736,-73.98085795,"casual"
"0DAC21A8D812001E","classic_bike","2024-09-13 19:22:54.175","2024-09-13 19:50:15.514","W 15 St & 7 Ave","6030.06","South End Ave & Albany St","5114.08",40.73935542,-73.99931783,40.709957,-74.016538,"casual"
"F1E0E4BF3D62223C","electric_bike","2024-09-07 15:28:54.077","2024-09-07 15:46:38.476","Amsterdam Ave & W 79 St","7311.02","3 Ave & E 62 St","6830.04",40.7829391,-73.9786517,40.76313,-73.96527,"casual"
"70C69E2D9A477CF0","classic_bike","2024-09-12 11:23:25.212","2024-09-12 11:28:30.589","5 Ave & E 63 St","6904.06","E 63 St & 3 Ave","6830.02",40.766368,-73.971518,40.763954,-73.9646,"member"
"DCE1E7DD6F96249B","classic_bike","2024-09-13 21:04:51.508","2024-09-13 21:09:19.467","E 1 St & 1 Ave","5593.01","E 10 St & Ave A","5659.05",40.723355979608,-73.9886498451233,40.72740794,-73.98142006,"member"
"180066650B29A584","electric_bike","2024-09-18 19:05:05.915","2024-09-18 19:13:18.464","7 Ave S & Bleecker St","5805.07","Bleecker St & Crosby St","5679.08",40.7321389628738,-74.0036380290985,40.7261560498041,-73.9951018989086,"casual"
"D85C890DA85F424E","electric_bike","2024-09-26 11:08:53.882","2024-09-26 11:29:38.069","57 St & 43 Ave","6158.06","E 72 St & York Ave","6889.12",40.74324,-73.908,40.76663814,-73.95348296,"member"
"D50C487BEF4CD69A","classic_bike","2024-09-03 18:59:26.821","2024-09-03 19:08:40.944","Fulton St & Adams St","4637.06","Congress St & Clinton St","4455.1",40.6924182925785,-73.989494740963,40.68825516598,-73.9954519271851,"member"
"A13A9941C84A0AEA","classic_bike","2024-09-22 13:43:34.309","2024-09-22 13:54:17.757","W 45 St & 8 Ave","6676.02","9 Ave & W 18 St","6190.08",40.75929124,-73.98859651,40.74317449,-74.00366443,"member"
"6CF09B85B7EC0C5F","electric_bike","2024-09-22 15:50:15.950","2024-09-22 15:58:52.956","9 Ave & W 22 St","6266.06","E 26 St & 3 Ave","6089.11",40.7454973,-74.00197139,40.7406931773304,-73.9816063642502,"member"
"C089C31768E51547","electric_bike","2024-09-27 15:58:40.586","2024-09-27 16:10:43.197","6 Ave & W 45 St","6593.15","Central Park West & W 68 St","7079.06",40.756951,-73.982631,40.7734066,-73.97782542,"casual"
"3D751B8C857F4942","electric_bike","2024-09-06 09:19:58.885","2024-09-06 09:24:26.950","McDonald Ave & Vanderbilt St","3394.03","E 3 St & Church Ave","3046.03",40.651654,-73.981231,40.643817,-73.977433,"member"
"F77C4EC1F28A9BCC","electric_bike","2024-09-19 15:16:31.217","2024-09-19 15:58:32.662","W 35 St & 9 Ave","6569.09","W 35 St & 9 Ave","6569.09",40.7541451926352,-73.9960889518261,40.7541451926352,-73.9960889518261,"member"
"C4D5783900DB237C","electric_bike","2024-09-12 12:19:12.588","2024-09-12 12:22:16.387","51 St & 43 Ave","6242.10","39 Ave & 54 St","6392.02",40.74451,-73.91412,40.74891,-73.90899,"member"
"3DFF23F94EDF8F24","classic_bike","2024-09-10 18:03:29.892","2024-09-10 18:09:49.521","Nostrand Ave & Rutland Rd","3585.06","Flatbush Ave & Lincoln Rd","3593.1",40.6595,-73.95041,40.66131,-73.96091,"member"
"890CD503ABB75ED7","classic_bike","2024-09-27 18:45:49.608","2024-09-27 19:10:49.843","E 54 St & 1 Ave","6608.09","Columbus Ave & W 59 St","6986.07",40.756265,-73.964179,40.76931,-73.98464,"member"
"7943C3363386A686","classic_bike","2024-09-11 08:59:10.036","2024-09-11 09:10:12.938","W 20 St & 8 Ave","6224.05","E 20 St & FDR Dr","5886.13",40.74345335,-74.00004031,40.7332086265224,-73.9756813647,"casual"
"02709397E2BF16C6","classic_bike","2024-09-03 18:32:37.962","2024-09-03 18:35:02.454","11 Ave & W 59 St","7059.01","W 54 St & 11 Ave","6955.05",40.7714967105444,-73.9904603362083,40.768333,-73.992573,"member"
"ABFA22D1B85DDA8B","classic_bike","2024-09-09 08:05:58.262","2024-09-09 08:13:52.619","8 Ave & W 16 St","6072.11","W 18 St & 6 Ave","6064.08",40.740983,-74.001702,40.73971301,-73.99456405,"member"
"FE493B57EEE26F9D","classic_bike","2024-09-10 16:06:24.106","2024-09-10 16:22:04.808","Pleasant Ave & E 116 St","7540.05","E 89 St & York Ave","7204.08",40.79499,-73.93333,40.7779453,-73.946041,"member"
"3A37A4C27D2728B6","electric_bike","2024-09-10 11:28:45.045","2024-09-10 11:37:36.027","W 31 St & 7 Ave","6331.01","E 16 St & Irving Pl","5938.11",40.749156,-73.9916,40.7353670556054,-73.9879739284515,"member"
"3135CDCA06456523","electric_bike","2024-09-26 18:34:50.053","2024-09-26 18:42:23.093","Frost St & Debevoise Ave","5433.04","George St & Wilson Ave","4906.07",40.71882,-73.93948,40.702997,-73.92997,"member"
"761AB0CF1F4B75A0","classic_bike","2024-09-30 19:28:19.966","2024-09-30 19:29:50.088","E 118 St & Madison Ave","7640.04","Madison Ave & E 120 St","7667.04",40.8014866,-73.9442507,40.80295,-73.942954,"member"
"BCE4C1D35AC75032","electric_bike","2024-09-04 15:27:15.963","2024-09-04 15:35:33.697","7 Ave S & Bleecker St","5805.07","West St & Chambers St","5329.03",40.7321389628738,-74.0036380290985,40.71754834,-74.01322069,"member"
"08EA6D189AF18251","electric_bike","2024-09-28 11:22:13.542","2024-09-28 11:27:25.029","W 35 St & 9 Ave","6569.09","6 Ave & W 33 St","6364.07",40.7541451926352,-73.9960889518261,40.74901271,-73.98848395,"member"
"78EBF05BE32E401B","electric_bike","2024-09-28 23:34:17.465","2024-09-28 23:39:51.396","Parkside Ave & Parade Pl","3376.04","West Drive & Prospect Park West","3651.04",40.6532,-73.96639,40.6610633719006,-73.9794525504112,"member"
"5CF0A5E7D00EC083","electric_bike","2024-09-20 11:07:06.203","2024-09-20 11:21:02.021","West End Ave & W 60 St","7059.08","8 Ave & W 27 St","6297.07",40.77237,-73.99005,40.747968,-73.996637,"casual"
"8432F55A0123F021","electric_bike","2024-09-29 17:54:23.607","2024-09-29 18:08:28.047","Fulton St & Broadway","5175.08","Lafayette St & E 8 St","5788.13",40.711066,-74.009447,40.7302066052995,-73.9910262823105,"casual"
"5B80276129A19262","electric_bike","2024-09-24 09:31:05.411","2024-09-24 09:40:02.980","Central Park West & W 85 St","7354.01","Riverside Dr & W 72 St","7288.04",40.78476,-73.969862,40.7805779901033,-73.9856243133545,"member"
"F5CEFAC9A0E145D8","electric_bike","2024-09-09 18:30:19.261","2024-09-09 18:42:36.566","DeKalb Ave & Vanderbilt Ave","4461.04","West Drive & Prospect Park West","3651.04",40.68940747,-73.96885458,40.6610633719006,-73.9794525504112,"member"
"DFEBB2C3C90D8191","electric_bike","2024-09-24 09:48:32.373","2024-09-24 10:00:05.622","48 St & Broadway","6629.06","49 Ave & 27 St","6119.01",40.755763,-73.912715,40.74113,-73.942518,"member"
"F45FF2E2FC8A3CDB","electric_bike","2024-09-24 07:40:44.052","2024-09-24 07:54:17.881","Amsterdam Ave & W 73 St","7260.09","E 58 St & 3 Ave","6762.02",40.7796680900731,-73.9809304475784,40.76095756,-73.96724467,"member"
"EAAA95C9114083ED","electric_bike","2024-09-22 10:50:50.723","2024-09-22 11:11:34.198","23 St & 31 Ave","6929.01","3 Ave & E 62 St","6830.04",40.7666397172309,-73.9286595582962,40.76313,-73.96527,"member"
"0CF9E26C8820D944","electric_bike","2024-09-22 08:16:55.219","2024-09-22 08:22:56.414","Liberty St & Broadway","5105.01","West St & Liberty St","5184.08",40.70905623,-74.01043382,40.711444,-74.014847,"casual"
"6D4168409600D698","electric_bike","2024-09-27 21:24:07.994","2024-09-27 21:43:58.660","Barclay St & Church St","5216.04","W 64 St & Thelonious Monk Circle","7123.04",40.71291224,-74.01020234,40.7751595343424,-73.9891869574785,"member"
"F9FA69A461547118","electric_bike","2024-09-06 13:53:19.060","2024-09-06 14:21:51.896","E 49 St & Church Ave","3300.04","Stagg St & Morgan Ave","5170.01",40.65182,-73.93135,40.710681,-73.93372,"member"
"8920462E968CC67F","classic_bike","2024-09-27 23:55:11.518","2024-09-28 00:08:48.476","Clermont Ave & Lafayette Ave","4461.01","Lafayette Ave & St James Pl","4494.04",40.68764484,-73.96968902,40.68851534,-73.9647628,"member"
"9BE8A784C735EF59","electric_bike","2024-09-08 19:11:44.073","2024-09-08 19:21:13.852","N 12 St & Bedford Ave","5450.04","McGuinness Blvd & Eagle St","5977.01",40.72079821,-73.95484712,40.73555,-73.95284,"member"
"85605D69DB6E56C2","electric_bike","2024-09-21 23:52:46.982","2024-09-22 00:05:30.634","Pulaski St & Throop Ave","4625.01","Albany Ave & Fulton St","4237.02",40.693115,-73.943149,40.6800105,-73.938475,"member"
"B182AAF5BD2F626C","classic_bike","2024-09-03 08:32:06.598","2024-09-03 08:38:34.618","W 45 St & 8 Ave","6676.02","W 56 St & 6 Ave","6809.07",40.75929124,-73.98859651,40.76340613,-73.97722479,"member"
"156F496E9BA807CA","electric_bike","2024-09-12 17:06:01.914","2024-09-12 17:29:01.031","Liberty St & Nassau St","5105.09","E 20 St & FDR Dr","5886.13",40.70858894,-74.00935482,40.7332086265224,-73.9756813647,"member"
"447C8F897A082B9A","classic_bike","2024-09-04 18:11:46.086","2024-09-04 18:34:22.047","W 40 St & 7 Ave","6560.14","West End Ave & W 60 St","7059.08",40.754818,-73.988154,40.77237,-73.99005,"member"
"1D09676B7AEE81A8","electric_bike","2024-09-10 09:06:45.459","2024-09-10 09:16:16.185","W 59 St & 10 Ave","7023.04","Broadway & W 51 St","6779.04",40.770513,-73.988038,40.76228826,-73.98336183,"member"
"D27F0CF2EE2FA9B5","electric_bike","2024-09-10 20:07:07.259","2024-09-10 20:10:53.103","E 17 St & 2 Ave","5896.01","W 18 St & 6 Ave","6064.08",40.7343116627657,-73.983725309372,40.73971301,-73.99456405,"member"
"5B21B7B8B900732B","electric_bike","2024-09-09 11:59:09.086","2024-09-09 12:05:41.460","Ave A & E 14 St","5779.11","Lafayette St & E 8 St","5788.13",40.730310710009,-73.9804717898369,40.7302066052995,-73.9910262823105,"member"
"ABF0A3122597CC54","electric_bike","2024-09-05 21:48:27.886","2024-09-05 21:57:46.879","7 Ave S & Bleecker St","5805.07","Reade St & Broadway","5247.10",40.7321389628738,-74.0036380290985,40.71450451,-74.00562789,"member"
"4C8F049A232F3FFC","classic_bike","2024-09-09 11:19:38.671","2024-09-09 11:25:45.139","E 1 St & 1 Ave","5593.01","Clinton St & Grand St","5303.06",40.723355979608,-73.9886498451233,40.71559509,-73.9870295,"member"
"37475D8F40440328","electric_bike","2024-09-15 14:23:53.326","2024-09-15 14:42:54.971","N 5 St & Wythe Ave","5419.04","Cambridge Pl & Gates Ave","4377.04",40.718389,-73.961501,40.68488,-73.96304,"casual"
"3A6960D4D5D4A1D9","electric_bike","2024-09-06 16:31:15.633","2024-09-06 17:07:53.310","E 58 St & 3 Ave","6762.02","Gold St & Frankfort St","5137.12",40.76095756,-73.96724467,40.71069995,-74.00354147,"member"
"A4D9C96B0C94CD7B","electric_bike","2024-09-03 18:00:18.200","2024-09-03 18:08:41.055","Leonard St & Church St","5359.11","Spring St & Hudson St","5653.12",40.717571,-74.005549,40.7258399679237,-74.0076532959938,"member"
"D39051D52197B547","electric_bike","2024-09-24 19:58:11.868","2024-09-24 20:09:18.347","Graham Ave & Grand St","5178.06","Suydam St & Knickerbocker Ave","4939.07",40.711863,-73.944024,40.702013,-73.923769,"member"
"6138B91D4DE56CE9","electric_bike","2024-09-16 14:52:44.177","2024-09-16 14:56:58.969","Plaza St West & Flatbush Ave","4010.13","6 St & 7 Ave","3834.1",40.6750207,-73.97111473,40.6686627,-73.97988067,"casual"
"5AECA32B10588E13","classic_bike","2024-09-12 15:53:13.531","2024-09-12 16:04:22.730","E 91 St & 2 Ave","7286.01","5 Ave & E 78 St","7161.08",40.7811527642791,-73.9496304094791,40.7763214218227,-73.964273929596,"member"
"32E54C836F734504","electric_bike","2024-09-01 16:13:08.061","2024-09-01 16:39:18.551","E 102 St & 1 Ave","7407.13","King St & Varick St","5687.11",40.7869946,-73.94164802,40.7278970140902,-74.0053626894951,"member"
"C3159C10B4CCB37C","electric_bike","2024-09-09 16:22:53.748","2024-09-09 16:30:31.895","6 Ave & W 33 St","6364.07","E 22 St & 2 Ave","5971.09",40.74901271,-73.98848395,40.7371691936988,-73.9812254905701,"member"
"A3DE961AC4CF9CA3","electric_bike","2024-09-02 16:38:52.027","2024-09-02 16:47:14.321","W 29 St & 9 Ave","6416.06","W 18 St & 6 Ave","6064.08",40.7500727,-73.99839279,40.73971301,-73.99456405,"casual"
"4AA48B1B5E02E582","classic_bike","2024-09-09 11:16:04.219","2024-09-09 11:48:43.805","Amsterdam Ave & W 79 St","7311.02","E 58 St & 3 Ave","6762.02",40.7829391,-73.9786517,40.76095756,-73.96724467,"casual"
"1534AD78EF0469CE","electric_bike","2024-09-10 17:46:39.703","2024-09-10 17:55:10.054","Riverside Dr & W 82 St","7388.10","West End Ave & W 60 St","7059.08",40.78720869,-73.98128127,40.77237,-73.99005,"member"
"84F7E9150AB50197","classic_bike","2024-09-18 17:12:52.780","2024-09-18 17:16:28.106","Lexington Ave & E 29 St","6164.09","E 32 St & Park Ave","6280.12",40.7431155537649,-73.9821535348892,40.7457121,-73.98194829,"member"
"52B8166FCAA9EB3E","electric_bike","2024-09-14 16:49:35.138","2024-09-14 17:28:15.521","7 Ave & Central Park South","6912.01","Peck Slip & South St","5096.12",40.7667405590595,-73.9790689945221,40.7075188830923,-74.0010805428028,"member"
"C16873ABF0B5F2E1","electric_bike","2024-09-30 22:33:34.440","2024-09-30 22:40:36.535","W 110 St & Amsterdam Ave","7646.04","W 110 St & Amsterdam Ave","7646.04",40.802692,-73.96295,40.802692,-73.96295,"casual"
"03E2CD92D4DDCD28","electric_bike","2024-09-17 12:50:33.237","2024-09-17 13:16:21.123","5 Ave & E 63 St","6904.06","Central Park West & W 72 St","7141.07",40.766368,-73.971518,40.7757937668367,-73.9762057363987,"casual"
"5B0C267AAD95255C","electric_bike","2024-09-13 13:10:41.795","2024-09-13 13:22:05.852","E 12 St & Ave C","5616.08","Christopher St & Greenwich St","5847.01",40.727243,-73.976831,40.73291553,-74.00711384,"member"
"6AF599D94725B280","electric_bike","2024-09-19 13:23:48.030","2024-09-19 13:29:20.768","E 14 St & 1 Ave","5779.10","Washington Pl & Broadway","5755.01",40.7313930336415,-73.9828670024872,40.72903917,-73.99404649,"casual"
"5B0E0B28A3DA1ED4","classic_bike","2024-09-18 17:57:24.846","2024-09-18 18:05:16.344","5 Ave & E 72 St","7100.07","Broadway & W 56 St","6847.02",40.77282817,-73.96685276,40.7652654,-73.98192338,"member"
"F85E060026ACCB50","electric_bike","2024-09-12 11:12:24.990","2024-09-12 11:19:42.899","Broadway & W 25 St","6173.08","E 17 St & 2 Ave","5896.01",40.7428687731211,-73.9891862869263,40.7343116627657,-73.983725309372,"casual"
"AA7024F22279AA28","classic_bike","2024-09-09 08:56:24.081","2024-09-09 09:13:51.699","E 5 St & Ave A","5626.06","Old Slip & South St","4993.13",40.7247900774634,-73.9843006432056,40.7033668669587,-74.007867872715,"member"
"74B48E3B00712888","classic_bike","2024-09-22 14:16:37.831","2024-09-22 14:20:57.195","Kosciuszko St & Tompkins Ave","4553.04","Myrtle Ave & Marcy Ave","4707.03",40.69128258,-73.9452416,40.69539817,-73.94954908,"member"
"EBD77B96D5BEBA8B","electric_bike","2024-09-12 17:12:47.171","2024-09-12 17:16:25.854","E 2 St & 2 Ave","5593.02","E 4 St & Ave B","5515.08",40.72502876,-73.99069656,40.7233468321802,-73.9826591312885,"member"
"5FF6D8A4583FDB46","electric_bike","2024-09-08 22:23:54.333","2024-09-08 22:45:34.918","Grove St & Fresh Pond Rd","5168.04","Grove St & Fresh Pond Rd","5168.04",40.71032,-73.89955,40.71032,-73.89955,"member"
"9764FDA52C7F5484","electric_bike","2024-09-19 17:12:54.063","2024-09-19 17:26:38.261","E 43 St & Madison Ave","6551.11","E 13 St & 2 Ave","5820.08",40.7535468186707,-73.978965729475,40.7315393746407,-73.9853024482727,"member"
"801AFCB60D18EBA1","electric_bike","2024-09-22 18:43:47.082","2024-09-22 18:50:43.396","Lafayette St & E 8 St","5788.13","1 Ave & E 16 St","5779.08",40.7302066052995,-73.9910262823105,40.73221853,-73.98165557,"member"
"66E5B72D93CA89D5","electric_bike","2024-09-29 23:36:58.071","2024-09-29 23:53:55.523","DeKalb Ave & Vanderbilt Ave","4461.04","Macon St & Patchen Ave","4301.04",40.68940747,-73.96885458,40.68374,-73.9261,"member"
"E3D2FEDA66CEA0D4","electric_bike","2024-09-20 20:34:07.719","2024-09-20 20:37:56.849","Driggs Ave & S 2 St","5235.10","Metropolitan Ave & Bedford Ave","5308.04",40.712628,-73.960575,40.71534825,-73.96024116,"member"
"134FA6F15CC72A81","classic_bike","2024-09-21 12:58:15.430","2024-09-21 13:03:33.154","E 20 St & FDR Dr","5886.13","Ave A & E 11 St","5703.13",40.7332086265224,-73.9756813647,40.7285474502394,-73.981759250164,"member"
"D47F3AD2B2512880","classic_bike","2024-09-02 15:39:10.922","2024-09-02 17:07:30.461","Front St & Jay St","4895.03","Atlantic Ave & Furman St","4614.04",40.702461,-73.986842,40.69165183,-73.9999786,"casual"
"64A373A9DC62E0CF","classic_bike","2024-09-18 03:09:20.914","2024-09-18 04:09:13.903","S 4 St & Wythe Ave","5204.05","Taylor St & Bedford Ave","4982.02",40.71285887,-73.96590294,40.705774,-73.963252,"member"
"9AF2B46B39DC3216","classic_bike","2024-09-24 07:39:32.253","2024-09-24 07:47:35.101","Market St & Henry St","5270.09","W Broadway & W Houston St","5644.05",40.7131070230591,-73.9944635331631,40.726378,-74.000472,"casual"
"6E67A5831DDCC00E","electric_bike","2024-09-14 11:30:39.078","2024-09-14 11:32:48.186","W 54 St & 11 Ave","6955.05","W 59 St & 10 Ave","7023.04",40.768333,-73.992573,40.770513,-73.988038,"member"
"6364F5777C2EDB8C","classic_bike","2024-09-07 20:41:18.564","2024-09-07 21:05:09.457","Walker St & Baxter St","5351.07","Centre St & Chambers St","5207.01",40.717411,-73.999573,40.71273266,-74.0046073,"casual"
"41ECA1F12BE380B3","classic_bike","2024-09-28 13:34:19.677","2024-09-28 13:36:34.297","1 Ave & E 16 St","5779.08","E 13 St & 2 Ave","5820.08",40.73221853,-73.98165557,40.7315393746407,-73.9853024482727,"member"
"00AEF912DF9F0747","classic_bike","2024-09-30 15:49:52.907","2024-09-30 15:54:29.728","Greene Ave & Grandview Ave","5106.04","Madison St & Forest Ave","5025.02",40.709697,-73.907856,40.70555,-73.90245,"member"
"584B52D8254E4216","electric_bike","2024-09-10 16:34:33.522","2024-09-10 16:46:59.998","Howard St & Lafayette St","5422.04","University Pl & E 14 St","5905.14",40.71910537,-73.99973337,40.734814,-73.992085,"casual"
"AF8EC6D144496F1B","electric_bike","2024-09-12 15:26:52.893","2024-09-12 15:32:48.782","Underhill Ave & Lincoln Pl","4042.08","6 St & 7 Ave","3834.1",40.6740123,-73.9671457,40.6686627,-73.97988067,"member"
"30D934BF20DB79B1","electric_bike","2024-09-23 17:53:45.620","2024-09-23 18:21:02.303","McKibbin St & Bogart St","5059.02","Wyckoff Ave & Stanhope St","4931.05",40.706237,-73.933871,40.703545,-73.917775,"casual"
"5212A461091904B0","electric_bike","2024-09-30 17:49:58.408","2024-09-30 17:55:19.023","11 Ave & W 27 St","6425.04","W 15 St & 7 Ave","6030.06",40.751396,-74.005226,40.73935542,-73.99931783,"member"
"70AFB9389F7EC6C2","electric_bike","2024-09-25 19:00:33.381","2024-09-25 19:21:32.607","7 Ave S & Bleecker St","5805.07","W 54 St & 11 Ave","6955.05",40.7321389628738,-74.0036380290985,40.768333,-73.992573,"casual"
"0F438D27D537CE44","electric_bike","2024-09-10 15:58:01.018","2024-09-10 16:01:57.964","8 St & Astoria Blvd","7068.07","Crescent St & 30 Ave","6958.06",40.7725996921817,-73.9326627552509,40.768692,-73.9249574,"casual"
"8C0C086FABDEFCA1","electric_bike","2024-09-02 16:29:40.733","2024-09-02 16:56:50.266","Riverside Dr & W 82 St","7388.10","Riverside Dr & W 78 St","7340.06",40.78720869,-73.98128127,40.78414472,-73.98362492,"casual"
"559E382CD94324E9","electric_bike","2024-09-03 15:45:37.252","2024-09-03 15:54:26.328","W 50 St & 10 Ave","6890.06","E 66 St & Madison Ave","6969.08",40.7647342000652,-73.9919435977936,40.7680088930595,-73.9684528112411,"casual"
"B30E771851E9E57F","classic_bike","2024-09-18 18:24:22.783","2024-09-18 18:29:09.908","Greenwich Ave & 8 Ave","6072.06","7 Ave S & Bleecker St","5805.07",40.7390169121,-74.0026376103,40.7321389628738,-74.0036380290985,"member"
"324655A1091FB108","electric_bike","2024-09-10 14:54:43.968","2024-09-10 15:00:01.388","LaGuardia Pl & W 3 St","5721.14","E 4 St & Ave B","5515.08",40.72917025,-73.99810231,40.7233468321802,-73.9826591312885,"member"
"F3770DC7696B1CE2","electric_bike","2024-09-14 10:00:51.482","2024-09-14 10:08:13.655","W 54 St & 11 Ave","6955.05","W 35 St & 8 Ave","6526.01",40.768333,-73.992573,40.752762088742,-73.9928045870511,"casual"
"273E3D68D62E1520","classic_bike","2024-09-29 16:07:54.197","2024-09-29 16:09:20.170","E 7 St & Ave A","5626.07","E 5 St & Ave A","5626.06",40.72621788,-73.98379855,40.7247900774634,-73.9843006432056,"member"
"695415B65CF40894","classic_bike","2024-09-18 17:26:33.180","2024-09-18 17:57:14.701","Broadway & E 21 St","6098.10","28 St & 36 Ave","6614.01",40.73988840859,-73.9895859360695,40.757186,-73.932719,"member"
"536B7A771374975B","electric_bike","2024-09-13 13:46:53.679","2024-09-13 14:14:15.873","E 91 St & 2 Ave","7286.01","8 Ave & W 27 St","6297.07",40.7811527642791,-73.9496304094791,40.747968,-73.996637,"member"
"268874981CD782B6","electric_bike","2024-09-15 18:55:18.176","2024-09-15 19:04:07.040","Hunts Point Ave & Bryant Ave","7820.05","3 Ave & E 169 St","8103.05",40.813991,-73.8855,40.832678,-73.905158,"member"
"E9C14577E9982706","classic_bike","2024-09-19 20:46:21.734","2024-09-19 21:24:25.212","Warren St & Smith St","4371.01","Manhattan Ave & Devoe St","5219.05",40.6854240099702,-73.9912777394056,40.713532,-73.9459867,"member"
"766AF4A460EF8899","classic_bike","2024-09-08 10:23:55.916","2024-09-08 10:32:54.568","W 100 St & Broadway","7580.01","Central Park W & W 91 St","7453.01",40.7973721,-73.97041192,40.7886649912788,-73.966800570488,"member"
"C2AD4B96BD421892","classic_bike","2024-09-06 06:31:06.253","2024-09-06 06:34:45.115","E 58 St & 1 Ave (NE Corner)","6682.03","E 47 St & 2 Ave","6498.10",40.758923863777,-73.9622622728348,40.75323098,-73.97032517,"member"
"C21A84AD294C945D","electric_bike","2024-09-22 15:55:17.598","2024-09-22 15:58:26.383","W 70 St & Amsterdam Ave","7207.08","Amsterdam Ave & W 79 St","7311.02",40.77748046,-73.98288594,40.7829391,-73.9786517,"member"
"1358984B6FD303F0","classic_bike","2024-09-12 17:26:49.936","2024-09-12 17:32:50.919","9 Ave & W 33 St","6492.08","W 47 St & 9 Ave","6786.02",40.752568,-73.996765,40.7615304515811,-73.9900700747967,"member"
"4D89136B2B50D193","electric_bike","2024-09-15 19:27:08.278","2024-09-15 19:32:50.923","W 20 St & 10 Ave","6306.01","Barrow St & Hudson St","5805.05",40.745686,-74.005141,40.73172428,-74.00674436,"member"
"E933E50CFB205B47","classic_bike","2024-09-26 08:51:20.261","2024-09-26 08:54:56.912","W 12 St & Hudson St","5997.10","Barrow St & Hudson St","5805.05",40.7375299330107,-74.0055893361568,40.73172428,-74.00674436,"member"
"BF16AF8BF9C0D4DB","classic_bike","2024-09-26 21:37:58.818","2024-09-26 21:44:02.159","Washington St & Gansevoort St","6039.06","Christopher St & Greenwich St","5847.01",40.739323,-74.008119,40.73291553,-74.00711384,"member"
"DD39C81FF884ED1F","electric_bike","2024-09-11 14:56:41.463","2024-09-11 15:39:08.406","5 Ave & E 103 St","7511.19","Central Park S & Grand Army Plaza","6839.15",40.7922553,-73.95249933,40.764555,-73.973473,"casual"
"D56DD2B4018D7693","electric_bike","2024-09-02 16:39:41.097","2024-09-02 16:56:04.796","Division Ave & Hooper St","5045.05","Sterling Pl & Franklin Ave","4033.16",40.7068420310133,-73.9544353965357,40.67324785,-73.95689517,"casual"
"18A395F2A1562B04","electric_bike","2024-09-10 16:03:44.112","2024-09-10 16:05:53.483","West End Ave & W 94 St","7524.09","Columbus Ave & W 95 St","7520.07",40.7941654,-73.974124,40.7919557,-73.968087,"member"
"76C1B4EBDC6EAEC7","classic_bike","2024-09-25 18:08:48.848","2024-09-25 18:11:04.892","Pearl St & Hanover Square","4993.02","William St & Pine St","5065.12",40.7047177,-74.00926027,40.70717936,-74.00887308,"member"
"42262C0A41D49D65","electric_bike","2024-09-09 19:43:51.414","2024-09-09 19:55:20.418","Jay St & York St","4895.09","Carroll St & Columbia St","4348.07",40.7014031725773,-73.9867267012596,40.6830456,-74.00348559,"casual"
"A49CABA31A8EB71B","classic_bike","2024-09-27 17:17:57.093","2024-09-27 17:26:02.671","E 6 St & Ave B","5584.04","Great Jones St","5636.11",40.72453734,-73.98185424,40.72743423,-73.99379025,"casual"
"C0BF651D97191766","electric_bike","2024-09-06 18:15:37.665","2024-09-06 18:28:33.534","Cedar St & Evergreen Ave","4721.01","Willoughby Ave & Walworth St","4634.02",40.69671,-73.92807,40.69331716,-73.95381995,"member"
"198A89190FF84826","electric_bike","2024-09-25 23:22:46.644","2024-09-25 23:29:53.061","Forsyth St & Canal St","5270.07","Bleecker St & Crosby St","5679.08",40.7158155,-73.99422366,40.7261560498041,-73.9951018989086,"member"
"5FFE1A458B129C43","classic_bike","2024-09-03 16:25:50.232","2024-09-03 16:37:43.977","2 Ave & E 29 St","6122.09","W 25 St & 8 Ave","6297.08",40.7417235109747,-73.9780926704407,40.7464999633334,-73.9973262629365,"member"
"6EB30B345FAFA563","classic_bike","2024-09-13 11:00:57.733","2024-09-13 11:23:27.555","10 Ave & W 14 St","6157.04","10 Ave & W 14 St","6157.04",40.7419815999402,-74.0083158016205,40.7419815999402,-74.0083158016205,"member"
"4355C24FBE1ADCE1","electric_bike","2024-09-18 00:03:11.509","2024-09-18 00:09:16.666","Hope St & Union Ave","5187.03","Throop Ave & Myrtle Ave","4697.01",40.71167351,-73.95141312,40.69622937,-73.94371094,"casual"
"75248C6CEEAB4AB6","electric_bike","2024-09-27 16:30:01.519","2024-09-27 16:45:41.803","Lafayette St & E 8 St","5788.13","W 36 St & 9 Ave","6569.07",40.7302066052995,-73.9910262823105,40.7546232402911,-73.9951676130295,"member"
"6C4FDBDE74773DD3","electric_bike","2024-09-05 18:16:37.384","2024-09-05 18:44:20.316","Canal St & Rutgers St","5303.08","E 74 St & 1 Ave","6953.08",40.71427487,-73.98990025,40.7689738,-73.95482273,"member"
"4CCFA63FE0073F67","electric_bike","2024-09-28 03:40:57.554","2024-09-28 03:50:22.520","Lorimer St & Broadway","4965.01","Chauncey St & Malcolm X Blvd","4228.06",40.70411791,-73.94818595,40.68044,-73.92842,"member"
"B7FCC228462079BA","classic_bike","2024-09-23 14:34:00.998","2024-09-23 15:01:29.070","Myrtle Ave & Marcy Ave","4707.03","Bay St & Court St","3931.09",40.69539817,-73.94954908,40.671409,-74.001328,"member"
"40C98DA98E2BB05B","classic_bike","2024-09-10 21:12:47.482","2024-09-10 21:17:37.203","Duffield St & Willoughby St","4596.05","3 Ave & Schermerhorn St","4437.01",40.69221589,-73.9842844,40.68683208,-73.9796772,"member"
"6D2CF394293346D2","classic_bike","2024-09-07 19:33:21.722","2024-09-07 19:46:09.953","Amsterdam Ave & W 79 St","7311.02","Columbus Ave & W 59 St","6986.07",40.7829391,-73.9786517,40.76931,-73.98464,"member"
"BB62C02FD044D6E2","electric_bike","2024-09-28 21:20:46.180","2024-09-28 21:28:59.957","4 Ave & E 12 St","5788.15","St Marks Pl & 1 Ave","5626.13",40.732647,-73.99011,40.72779126,-73.98564945,"member"
"D28CE7C8A116FF6A","classic_bike","2024-09-11 16:54:23.095","2024-09-11 16:58:37.878","Grand Ave & Bergen St","4190.06","Bergen St & Vanderbilt Ave","4157.10",40.678045,-73.962408,40.6794388,-73.9680438,"member"
"EEDD5C0223708E1D","classic_bike","2024-09-06 00:55:08.317","2024-09-06 01:15:01.416","Stanton St & Chrystie St","5523.02","Union Ave & Jackson St","5300.06",40.72229346,-73.99147535,40.7160751,-73.952029,"member"
"B451A9FC9AB2891F","electric_bike","2024-09-13 19:17:05.042","2024-09-13 19:22:07.196","Market St & Henry St","5270.09","Market St & Henry St","5270.09",40.7131070230591,-73.9944635331631,40.7131070230591,-73.9944635331631,"casual"
"72843235E27AD9C2","classic_bike","2024-09-30 10:36:12.946","2024-09-30 10:41:14.560","8 Ave & W 49 St","6747.07","W 50 St & 10 Ave","6890.06",40.7617122791067,-73.9865510165691,40.7647342000652,-73.9919435977936,"member"
"913BED5D269F9404","electric_bike","2024-09-15 15:52:43.469","2024-09-15 16:13:05.375","Central Park S & 6 Ave","6876.04","E 7 St & Ave B","5584.05",40.76590936,-73.97634151,40.7251285241158,-73.9813166856766,"casual"
"F15784885FAAC8C8","classic_bike","2024-09-15 21:49:19.198","2024-09-15 21:50:44.869","Broadway & E 21 St","6098.10","Broadway & E 21 St","6098.10",40.73988840859,-73.9895859360695,40.73988840859,-73.9895859360695,"member"
"790A9BCEA32B8815","electric_bike","2024-09-04 19:40:53.177","2024-09-04 19:47:18.469","N Moore St & Hudson St","5470.02","West St & Liberty St","5184.08",40.7199611811714,-74.0084432065487,40.711444,-74.014847,"member"
"112E7AB6577D0B1C","electric_bike","2024-09-08 13:31:01.279","2024-09-08 13:37:11.005","W 43 St & 10 Ave","6756.01","West End Ave & W 60 St","7059.08",40.76009437,-73.99461843,40.77237,-73.99005,"member"
"8A26F06B7E01BED0","electric_bike","2024-09-20 22:20:10.764","2024-09-20 22:29:05.943","7 Ave & 40 St","3266.01","34 St & 4 Ave","3492.04",40.648169,-74.000057,40.655278,-74.003101,"member"
"EAAA3F06C00A5382","electric_bike","2024-09-21 21:23:33.649","2024-09-21 22:09:10.928","34 Ave & 31 St","6720.07","Crescent St & 35 Ave","6688.01",40.7596044713879,-73.9271441102028,40.7596276,-73.9321455,"member"
"7AC665FC2B753BB4","electric_bike","2024-09-05 07:27:36.423","2024-09-05 08:03:02.737","W 170 St & University Ave","8254.01","W 42 St & 6 Ave","6517.08",40.84207,-73.926075,40.75492,-73.98455,"member"
"3B9044D565F48054","classic_bike","2024-09-26 16:40:55.584","2024-09-26 16:44:25.273","3 Ave & E 71 St","6960.12","E 74 St & 1 Ave","6953.08",40.76879,-73.9614,40.7689738,-73.95482273,"member"
"7C2740E2CD39B90A","electric_bike","2024-09-08 11:20:25.153","2024-09-08 11:22:54.237","Riverside Blvd & W 67 St","7183.03","W 70 St & Amsterdam Ave","7207.08",40.777507027548,-73.9888858795166,40.77748046,-73.98288594,"member"
"AC80D4BDA9FF36B6","electric_bike","2024-09-14 22:29:47.771","2024-09-14 22:59:35.926","43 St & 50 Ave","5983.04","Central Ave & Decatur St","4432.10",40.7378723795054,-73.9226406812668,40.6882,-73.90798,"member"
"7EB1DD0A0495A7D9","electric_bike","2024-09-21 12:23:18.065","2024-09-21 13:42:31.688","Riverside Dr & W 72 St","7288.04","Greenwich St & W Houston St","5730.08",40.7805779901033,-73.9856243133545,40.728846,-74.008591,"casual"
"6E1879946451D4AE","classic_bike","2024-09-06 16:47:25.671","2024-09-06 17:08:28.931","Centre St & Worth St","5279.03","Broadway & E 14 St","5905.12",40.71494807,-74.00234482,40.73454567,-73.99074142,"casual"
"A8AD1E87B90F1E45","electric_bike","2024-09-11 13:51:07.908","2024-09-11 14:48:38.116","Central Park S & Grand Army Plaza","6839.15","Central Park S & Grand Army Plaza","6839.15",40.764555,-73.973473,40.764555,-73.973473,"casual"
"4A53B942009CDB9A","classic_bike","2024-09-12 19:48:57.492","2024-09-12 20:16:46.890","Brooklyn Bridge Park - Pier 2","4756.04","Brooklyn Bridge Park - Pier 2","4756.04",40.698458,-73.997178,40.698458,-73.997178,"casual"
"77DFEE8019EE8743","classic_bike","2024-09-06 14:03:42.255","2024-09-06 14:07:42.110","23 St & 31 Ave","6929.01","31 St & Broadway","6789.2",40.7666397172309,-73.9286595582962,40.76211,-73.92523,"member"
"E42E028D9C57A232","electric_bike","2024-09-21 08:30:28.258","2024-09-21 08:44:18.895","Onderdonk Ave & Dekalb Ave","5115.01","Van Dam St & Greenpoint Ave","5883.06",40.70863,-73.91497,40.7344356406946,-73.9379078149796,"casual"
"8C41522E9686E771","electric_bike","2024-09-02 18:38:41.838","2024-09-02 19:03:59.149","Grand Army Plaza & Plaza St West","4010.15","Front St & Jay St","4895.03",40.6729679,-73.97087984,40.702461,-73.986842,"member"
"C386B907E5E49DCC","electric_bike","2024-09-24 17:50:56.678","2024-09-24 18:11:39.104","W 34 St & Hudson Blvd E","6535.04","E 20 St & FDR Dr","5886.13",40.7551671907214,-74.0005990862846,40.7332086265224,-73.9756813647,"casual"
"E122C285C4B9F840","electric_bike","2024-09-30 15:54:56.122","2024-09-30 16:15:46.492","48 St & 50 Ave","6016.06","George St & Wilson Ave","4906.07",40.73737,-73.91803,40.702997,-73.92997,"casual"
"18850D77E8A9646E","electric_bike","2024-09-18 12:34:03.056","2024-09-18 12:40:03.113","5 Ave & E 103 St","7511.19","Madison Ave & E 82 St","7188.13",40.7922553,-73.95249933,40.7781314,-73.96069399,"member"
"22C9BF1BB5C1C3A3","classic_bike","2024-09-13 16:06:31.213","2024-09-13 16:09:17.620","5 Ave & E 30 St","6248.08","Broadway & W 25 St","6173.08",40.7459849,-73.98629487,40.7428687731211,-73.9891862869263,"member"
"0C9B1B79061C3019","electric_bike","2024-09-25 18:53:00.437","2024-09-25 18:56:55.361","E 25 St & 2 Ave","6046.02","E 16 St & Irving Pl","5938.11",40.73912601,-73.97973776,40.7353670556054,-73.9879739284515,"member"
"FB8CCF444AF7626E","electric_bike","2024-09-25 16:14:10.450","2024-09-25 16:27:19.199","E 169 St & Webster Ave","8122.04","E Burnside Ave & Ryer Ave","8397.02",40.834015,-73.908863,40.850535,-73.901318,"member"
"13B4C75B901AC071","electric_bike","2024-09-09 11:32:03.582","2024-09-09 11:49:27.280","Broadway & W 29 St","6289.06","W 70 St & Amsterdam Ave","7207.08",40.7462009,-73.98855723,40.77748046,-73.98288594,"member"
"BA59E82BAFE10730","classic_bike","2024-09-15 09:43:05.594","2024-09-15 10:08:21.446","E 22 St & 2 Ave","5971.09","Washington St & Laight St","5509.02",40.7371691936988,-73.9812254905701,40.72231,-74.0106,"casual"
"4179BFF4E1286882","classic_bike","2024-09-16 17:05:31.259","2024-09-16 17:12:34.777","Richards St & Delavan St","4202.04","Smith St & 9 St","4077.04",40.6794327,-74.00785041,40.6746957,-73.99785768,"member"
"D60492BD27F82187","classic_bike","2024-09-23 23:39:36.287","2024-09-23 23:53:58.134","DeKalb Ave & Hudson Ave","4513.06","Tompkins Ave & Hopkins St","4850.04",40.689888,-73.981013,40.69957608,-73.94708417,"member"
"78C79D768429E72D","electric_bike","2024-09-21 21:57:20.043","2024-09-21 22:13:10.669","William St & Pine St","5065.12","Greenwich St & W Houston St","5730.08",40.70717936,-74.00887308,40.728846,-74.008591,"casual"
"B9648287BFFA78F8","electric_bike","2024-09-23 00:08:46.767","2024-09-23 00:32:04.282","Market St & Cherry St","5198.04","Norman Ave & Leonard St","5666.11",40.71076228,-73.99400398,40.725819,-73.950815,"casual"
"2DA4381B4BAE1AA2","classic_bike","2024-09-15 10:56:37.083","2024-09-15 10:59:55.196","West End Ave & W 60 St","7059.08","West End Ave & W 60 St","7059.08",40.77237,-73.99005,40.77237,-73.99005,"member"
"60409C826098171B","electric_bike","2024-09-11 13:21:36.713","2024-09-11 13:26:02.185","E 11 St & Broadway","5829.12","Allen St & Stanton St","5484.09",40.73261787,-73.99158043,40.722055,-73.989111,"member"
"BD261A3F75EE1B65","classic_bike","2024-09-11 15:01:28.353","2024-09-11 15:05:57.184","N 6 St & Bedford Ave","5379.10","N 9 St & Wythe Ave","5489.06",40.71745169,-73.95850939,40.72054,-73.959,"casual"
"9E6E6B11CDD4EE51","electric_bike","2024-09-25 08:04:50.944","2024-09-25 08:13:33.081","E 58 St & 3 Ave","6762.02","E 81 St & Park Ave","7188.1",40.76095756,-73.96724467,40.77677702,-73.9590097,"member"
"EF4343450956F32E","electric_bike","2024-09-11 06:03:46.466","2024-09-11 06:11:27.081","Lexington Ave & E 29 St","6164.09","10 Ave & W 14 St","6157.04",40.7431155537649,-73.9821535348892,40.7419815999402,-74.0083158016205,"member"
"CF9C68962CEA62A3","electric_bike","2024-09-10 22:40:19.114","2024-09-10 22:52:08.863","W 20 St & 8 Ave","6224.05","Broadway & W 53 St","6779.05",40.74345335,-74.00004031,40.76344058,-73.98268129,"member"
"327D0C229414DFBE","classic_bike","2024-09-21 14:17:23.779","2024-09-21 14:29:13.692","Duffield St & Willoughby St","4596.05","DeKalb Ave & Vanderbilt Ave","4461.04",40.69221589,-73.9842844,40.68940747,-73.96885458,"casual"
"B7136807DE5EF943","electric_bike","2024-09-11 19:21:58.522","2024-09-11 19:29:07.320","E 3 St & 1 Ave","5553.03","4 Ave & E 12 St","5788.15",40.72467721,-73.98783413,40.732647,-73.99011,"member"
"FCE6D38D8BA3D152","electric_bike","2024-09-08 21:53:22.871","2024-09-08 21:58:17.990","Norfolk St & Broome St","5374.01","Pike St & Monroe St","5159.04",40.7172274,-73.98802084,40.71173107,-73.99193043,"member"
"5AE56F67AA19FB9A","electric_bike","2024-09-22 17:37:36.859","2024-09-22 18:14:54.628","Grand Army Plaza & Plaza St West","4010.15","Front St & Jay St","4895.03",40.6729679,-73.97087984,40.702461,-73.986842,"member"
"9A3E4BFA85166F3E","electric_bike","2024-09-26 16:35:43.447","2024-09-26 16:45:48.376","1 Ave & E 6 St","5626.15","S 5 Pl & S 5 St","5125.03",40.726330859717,-73.9861688017845,40.710451,-73.960876,"member"
"F8800333E3BDD435","electric_bike","2024-09-05 10:08:32.001","2024-09-05 10:22:42.412","Bank St & Hudson St","5922.08","E 43 St & Madison Ave","6551.11",40.73652889,-74.00618026,40.7535468186707,-73.978965729475,"casual"
"26BD23EF27865833","classic_bike","2024-09-05 08:21:26.639","2024-09-05 08:26:14.196","Greenwich Ave & Charles St","5914.08","Great Jones St","5636.11",40.735238,-74.000271,40.72743423,-73.99379025,"member"
"7A33BD1CF79B439B","electric_bike","2024-09-17 17:53:20.680","2024-09-17 18:31:29.136","5 Ave & E 72 St","7100.07","Pacific St & Smith St","4446.03",40.77282817,-73.96685276,40.6878809396128,-73.9893928170204,"member"
"3808D436C39622C1","electric_bike","2024-09-28 10:36:14.029","2024-09-28 10:55:17.724","S 4 St & Rodney St","5156.05","Lafayette St & E 8 St","5788.13",40.70934,-73.95608,40.7302066052995,-73.9910262823105,"member"
"FB0D29DE7CF91363","classic_bike","2024-09-04 17:39:58.226","2024-09-04 17:44:31.596","W 31 St & 7 Ave","6331.01","W 20 St & 7 Ave","6182.02",40.749156,-73.9916,40.74238787,-73.99726235,"member"
"C09930078D2B9F5F","classic_bike","2024-09-12 18:37:13.995","2024-09-12 18:46:15.313","Jay St & Tech Pl","4710.06","Clinton Ave & Myrtle Ave","4651.02",40.695065,-73.987167,40.693261,-73.968896,"member"
"BC92428F640F8998","classic_bike","2024-09-18 06:49:16.911","2024-09-18 06:59:45.342","8 Ave & W 31 St","6450.05","E 50 St & Park Ave","6659.1",40.7505853470215,-73.9946848154068,40.757334,-73.974235,"member"
"6F3A6547C7878AE3","electric_bike","2024-09-15 03:45:56.742","2024-09-15 03:50:46.097","E 165 St & Clay Ave","8052.02","College Ave & E 169 St","8141.05",40.82809,-73.91288,40.8351227990364,-73.9119681715965,"member"
"329A4E159592BE25","classic_bike","2024-09-29 14:37:08.866","2024-09-29 14:43:37.840","Carroll St & Columbia St","4348.07","Congress St & Clinton St","4455.1",40.6830456,-74.00348559,40.68825516598,-73.9954519271851,"member"
"D154CD7561579DDC","classic_bike","2024-09-23 08:58:31.324","2024-09-23 09:01:01.935","Orchard St & Grand St","5343.11","Forsyth St & Canal St","5270.07",40.7173184038558,-73.9906775951385,40.7158155,-73.99422366,"member"
"8BE4BC99A9394819","electric_bike","2024-09-11 19:38:44.612","2024-09-11 19:56:34.482","5 Ave & 3 St","3987.06","Clarkson Ave & Nostrand Ave","3472.03",40.6728155,-73.98352355,40.6555,-73.94975,"member"
"83AC59CD99399FCB","electric_bike","2024-09-07 23:29:01.206","2024-09-07 23:33:55.977","E 97 St & Madison Ave","7393.09","E 97 St & Madison Ave","7393.09",40.787801,-73.953559,40.787801,-73.953559,"member"
"8273FC2B38CC0DDC","electric_bike","2024-09-14 14:29:14.827","2024-09-14 14:37:30.549","W 10 St & Washington St","5847.06","Washington St & Gansevoort St","6039.06",40.7334239943708,-74.0085149556398,40.739323,-74.008119,"member"
"5323A24A3FD7505D","electric_bike","2024-09-03 20:49:09.421","2024-09-03 20:55:18.984","Warren St & Smith St","4371.01","Carroll St & Columbia St","4348.07",40.6854240099702,-73.9912777394056,40.6830456,-74.00348559,"casual"
"E4DEF76EFA008D83","electric_bike","2024-09-08 15:03:20.418","2024-09-08 15:12:53.248","West Drive & Prospect Park West","3651.04","36 St & 4 Ave","3420.01",40.6610633719006,-73.9794525504112,40.654144,-74.00422,"member"
"90FE515CF4F3183A","electric_bike","2024-09-14 16:17:48.863","2024-09-14 16:31:48.234","Willoughby Ave & Myrtle Ave","4759.02","DeKalb Ave & Vanderbilt Ave","4461.04",40.69757,-73.93098,40.68940747,-73.96885458,"casual"
"F15831ECD6C2BA5E","classic_bike","2024-09-19 11:02:31.684","2024-09-19 11:04:34.812","Driggs Ave & S 2 St","5235.10","Broadway & Roebling St","5125.07",40.712628,-73.960575,40.7092482627616,-73.9606314897537,"member"
